name,borough_name,website,os_addressbase_uprn,borough_code,ward_2018_name,ward_2018_code,address1,address2,address3,easting,northing,longitude,latitude,runtime
Moth Club,HACKNEY,www.mothclub.co.uk,100023022302,E09000012,Homerton,E05009376,Hackney Trades Hall Valette Street,Hackney,,535006.0,184765.0,-0.05283064783338017,51.545130588780204,11/27/2022
Her Majesty's Theatre,CITY OF WESTMINSTER,www.reallyusefultheatres.co.uk/our-theatres/her-majestys,100023349365,E09000033,St. James's,E05000644,Haymarket City Of Westminster,,,529733.0,180453.0,-0.13042617778723892,51.507612831550354,11/27/2022
King's College,CITY OF WESTMINSTER,,100022807697,E09000033,St. James's,E05000644,Strand City Of Westminster,,,530818.0,180869.0,-0.1146450114741382,51.5111015012517,11/27/2022
Peacock Theatre,CITY OF WESTMINSTER,www.peacocktheatre.com,100023430213,E09000033,St. James's,E05000644,Portugal Street City Of Westminster,,,530687.0,181201.0,-0.11640879304807356,51.51411571307505,11/27/2022
Picadilly Theatre,CITY OF WESTMINSTER,www.piccadillytheatre.co.uk,100023472891,E09000033,West End,E05000649,16 Denman Street,City Of Westminster,,529491.0,180773.0,-0.13379409272346907,51.51054441839087,11/27/2022
Queen's Theatre,CITY OF WESTMINSTER,www.queenstheatre.co.uk,100023472885,E09000033,West End,E05000649,51 Shaftesbury Avenue,City Of Westminster,,529660.0,180883.0,-0.13131941975979194,51.511494302687964,11/27/2022
Rays Jazz At Foyles,CITY OF WESTMINSTER,www.foyles.co.uk/events,100023431365,E09000033,West End,E05000649,107 Charing Cross Road,City Of Westminster,,529838.0,181184.0,-0.12864464539582288,51.514158713042505,11/27/2022
St. John's Concert Hall,CITY OF WESTMINSTER,www.sjss.org.uk,100023339546,E09000033,St. James's,E05000644,Smith Square City Of Westminster,,,530119.0,179124.0,-0.12535706728556498,51.49557943144938,11/27/2022
Swan,HOUNSLOW,www.swaninnisleworth.co.uk,100023407007,E09000018,Isleworth,E05000362,Saracen House Swan Street,Hounslow,,516591.19999999553,175813.0,-0.3212521249326543,51.46877045712357,11/27/2022
The Albany,LEWISHAM,www.thealbany.org.uk,100023280903,E09000023,New Cross,E05000449,Albany Centre & Theatre Douglas Way,Lewisham,,537157.0,177236.0,-0.02475631723780415,51.476947689527975,11/27/2022
Fire,LAMBETH,www.firelondon.net/,100023383445,E09000022,Oval,E05000426,Arch 39-43 Parry Street,Lambeth,,530370.0,177865.0,-0.12220803018542027,51.48420609539629,11/27/2022
Flower Pot,WALTHAM FOREST,www.flowerpotlivemusic.com,200001429820,E09000031,Wood Street,E05000609,128 Wood Street,Waltham Forest,,538335.0,189644.0,-0.002927177182245698,51.58817154289897,11/27/2022
Wyndham's Theatre,CITY OF WESTMINSTER,www.wyndhamstheatre.co.uk,100023431358,E09000033,St. James's,E05000644,Charing Cross Road City Of Westminster,,,529988.0,180786.0,-0.1266307161427016,51.51054711866157,11/27/2022
The White Swan,RICHMOND UPON THAMES,www.whiteswantwickenham.co.uk,100023392142,E09000027,Twickenham Riverside,E05000531,Riverside Richmond Upon Thames,,,516744.0,173342.0,-0.3198689176556896,51.44652786860122,11/27/2022
Big Chill Bar,Tower Hamlets,www.wearebigchill.com,6151992,E09000030,Spitalfields & Banglatown,E05009333,Tower Hamlets ,,,533846.000122197,181980.00012159348,-0.07060968186122628,51.52037718301723,11/27/2022
Total Refreshment Centre,,www.totalrefreshment.net,,,,,2A Foulden Road,,,533629.8500000983,185857.43999949843,-0.07225141239405451,51.555276312536535,11/27/2022
The White Hart,Lewisham,,100000000000,E09000023,Telegraph Hill,E05000453,184 New Cross Road,Lewisham,,535752.000122197,176868.00012159348,-0.04511888852545239,51.473979323192054,11/27/2022
The Camden Assembly Pub,Camden,www.camdenassembly.com,5020249,E09000007,Haverstock,E05000136,49 Chalk Farm Road,Camden,,528436.000122197,184314.00012159348,-0.14769866368458578,51.54261093903531,11/27/2022
Peckham Levels,Southwark,www.peckhamlevels.org/events,0,E09000028,Rye Lane,E05011113,Peckham Levels 95a Rye Lane,London Se15 4st,,534271.000122197,176411.00012159348,-0.06660641569886153,51.47022555171327,11/27/2022
Fold,,www.shapescollective.com,,,,,Gillian House,Stephenson Street,,539151.3509067968,181949.99157249928,0.005805652016585836,51.51882520582024,11/27/2022
Kansas Smitty's,,www.kansassmittys.com,,,,,63-65 Broadway Market,,,534546.9160105959,183827.77491239458,-0.05980619768391666,51.53681714136132,11/27/2022
Big Easy,,www.bigeasy.co.uk,,,,,Crossrail Place,,,537670.4106782973,180245.36610189825,-0.016193363142394508,51.5038685224563,11/27/2022
Sister Midnight Records,,www.sistermidnightrecords.co.uk,,,,,4 Tanner's Hill,,,537189.8373322934,176927.90497199446,-0.024403379778715976,51.47417081602974,11/27/2022
Tooting Tram & Social,,www.tootingtramandsocial.co.uk,,,,,46-48 Mitcham Rd,,,527533.9125013947,171347.1312507987,-0.1653856075188256,51.426270560131556,11/27/2022
The Unicorn,Camden,www.theunicorncamden.com,,,,,227a Camden Road,,,529786.981259495,184992.70312279463,-0.12797558292784783,51.54840176049184,11/27/2022
St John's Music Hall,,www.musichalls.org/posts/st-johns-music-hall,,,,,High Rd,Leytonstone,,539465.4059100971,187459.99889249355,0.012513692760157248,51.56826559167155,11/27/2022
EartH,,https://earthackney.co.uk/,,,,,11-17 Stoke Newington Rd,,,533550.4283712953,185305.88460149616,-0.07360592378311397,51.55033810861695,11/27/2022
Jamboree,,www.jamboreevenue.co.uk,,,,,27 Three Colt St,,,536822.4991706982,181036.97006569803,-0.028096618214044227,51.51118874348936,11/27/2022
Oslo Hackney,,www.oslohackney.com,,,,,1A Amhurst Rd,,,534784.3976081982,185023.8788675964,-0.05592561336907377,51.547510178925734,11/27/2022
Pickle Factory,,www.ovalspace.co.uk,,,,,13-14 The Oval,,,534706.5636017993,183306.8844048977,-0.05770479413358204,51.53209767090289,11/27/2022
Paper Dress Vintage,,www.paperdressvintage.co.uk,,,,,352 Mare Street,,,534976.7079809979,184958.66534599662,-0.05317855309188124,51.54687811387985,11/27/2022
Slim Jim's Liquor Store,Islington,www.slimjimsliquorstore.com,,,,,112 Upper St,,,531669.1093750969,183826.10937449336,-0.10128058967253106,51.53748087983675,11/27/2022
The Sound Lounge,,www.thesoundlounge.org.uk,,,,,216-220 High Street,,,525803.8969182,164601.3355139941,-0.1926506700931572,51.36602486975543,11/27/2022
Under the Bridge,,www.underthebridge.co.uk,,,,,Fulham Road,,,525781.5875054002,177448.3124928996,-0.18840977026257302,51.48150019293787,11/27/2022
Leytonstone Ex-Servicemens Club,Waltham Forest,www.leytonstonesocial.club,100000000000,E09000031,Leytonstone,E05000605,2 Harvey Road,Waltham Forest,,539521.000122197,187306.00012149662,0.013254243839670863,51.56686787287454,11/27/2022
Thousand Island,Islington,www.thegarage.london/listings/#=.thousand-island,0,E09000019,Highbury East,E05000372,20-22 Highbury Corner Highbury East,,,531565.000122197,184798.00012159348,-0.10241761004299621,51.546240033794874,11/27/2022
Plough,Ealing,www.ploughinnnorwoodgreen.co.uk,12126106,E09000009,Norwood Green,E05000186,Tentelow Lane Ealing,,,513522.0001221001,178570.00012169778,-0.3645382256134785,51.494176963496706,11/27/2022
Rumpus Room,Southwark,,10091666184,E09000028,Borough & Bankside,E05011095,20 Upper Ground,Southwark,,531472.000122197,180533.00012159348,-0.1053503689668218,51.50792985311685,11/27/2022
Claret Wine Bar,Sutton,,5870019859,E09000029,Cheam,E05000560,33 The Broadway,Sutton,,524246.000122197,163697.00012159348,-0.21533634160787932,51.35823940402489,11/27/2022
Revolution,Sutton,,5870030304,E09000029,Sutton West,E05000567,42795 High Street,Sutton,,526005.000122197,163822.00012159348,-0.19003930106079725,51.3589754365327,11/27/2022
Wallington Arms,Sutton,www.wallingtonarms.com,5870077343,E09000029,Wallington South,E05000570,6 Woodcote Road,Sutton,,528889.000122197,163959.00012159348,-0.14858626595637497,51.35955967045487,11/27/2022
Earl Of Eldon,Croydon,,100000000000,E09000008,South Croydon,E05011484,63 Brighton Road,Croydon,,532555.000122197,163991.00012159348,-0.09594522821591386,51.35900353733978,11/27/2022
Bounce,Sutton,,5870122285,E09000029,Sutton Central,E05000564,57 High Street,Sutton,,525941.000122197,164050.00012159348,-0.19087736192209873,51.36103894895378,11/27/2022
New Inn,Sutton,,5870048302,E09000029,Sutton Central,E05000564,16-18 Myrtle Road,Sutton,,526307.000122197,164404.00012159348,-0.18549689050153836,51.36413949421267,11/27/2022
The Coach & Horses,Sutton,,5870077971,E09000029,Carshalton Central,E05000558,10 High Street,Sutton,,528025.000122197,164478.00012159348,-0.1608033340102286,51.36441989640947,11/27/2022
Race Horse,Sutton,www.theracehorsepub.co.uk,5870063158,E09000029,Carshalton Central,E05000558,17 West Street,Sutton,,527672.000122197,164620.00012159348,-0.16582070727709625,51.36577568061749,11/27/2022
The Boom Boom Club,Sutton,www.feenstra.co.uk/boomboom,0,E09000029,Sutton West,E05000567,Sutton United Football Club The Borough Sports Ground,Gander Green Ln,Sutton,525095.000122197,164702.00012159348,-0.20279414144266522,51.36708628644587,11/27/2022
Scream Lounge,Croydon,,100000000000,E09000008,Fairfield,E05011468,20 South End,Croydon,,532411.000122197,164775.00012159348,-0.09772046727812453,51.36608352795992,11/27/2022
Olde Whyte Lyon,Bromley,www.yeoldewhytelyon.co.uk,10013149027,E09000006,Farnborough And Crofton,E05000118,Farnborough Common Orpington,,,543154.0001222938,164913.00012149662,0.05657138470073329,51.36471716035939,11/27/2022
The Railway Tavern,Sutton,www.railwaytaverncarshalton.co.uk,5870062829,E09000029,The Wrythe,E05000568,47 North Street,Sutton,,527771.000122197,164953.00012159348,-0.16427951461237883,51.36874644754404,11/27/2022
Royal Standard,Croydon,www.royalstandardcroydon.co.uk,100000000000,E09000008,Fairfield,E05011468,1 Sheldon Street,Croydon,,532242.000122197,165139.00012159348,-0.10001153299102929,51.369394456113554,11/27/2022
The Soulful Cellar,Croydon,,200000000000,E09000008,Fairfield,E05011468,90 High Street,Croydon,,532328.000122197,165206.00012159348,-0.09875170962792135,51.3699765984302,11/27/2022
Ship,Croydon,www.shippub.co.uk,200000000000,E09000008,Fairfield,E05011468,47 High Street,Croydon,,532342.000122197,165377.00012159348,-0.09848699749884317,51.37151024035408,11/27/2022
Matthews Yard,Croydon,,10090382144,E09000008,Fairfield,E05011468,1 Matthews Yard,Croydon,,532270.000122197,165389.00012159348,-0.09951642784713824,51.371634872536426,11/27/2022
Tiger Tiger,Croydon,,10014052022,E09000008,Fairfield,E05011468,16 High Street,Croydon,,532289.000122197,165482.00012159348,-0.09920896958873064,51.37246630638366,11/27/2022
Project B,Croydon,,10090380116,E09000008,Fairfield,E05011468,1 Bell Hill,Croydon,,532262.000122197,165531.00012159348,-0.09957844966639204,51.372912997151616,11/27/2022
Boxpark Croydon,Croydon,,10093049119,E09000008,Fairfield,E05011468,Boxpark Croydon 99,George Street,Croydon,532777.000122197,165706.00012159348,-0.09211761373814116,51.374365629802334,11/27/2022
The Red Lion,Sutton,,5870110898,E09000029,Wandle Valley,E05000571,Hackbridge Road Sutton,,,528319.000122197,165977.00012159348,-0.15604080022404015,51.377826618247745,11/27/2022
Oval Tavern,Croydon,www.theovaltavern.co.uk,100000000000,E09000008,Addiscombe West,E05011463,131 Oval Road,Croydon,,533190.000122197,166099.00012159348,-0.08603939479436525,51.37780103705135,11/27/2022
Builders Arms,Croydon,www.buildersarmscroydon.co.uk,100000000000,E09000008,Addiscombe West,E05011463,65 Leslie Park Road,Croydon,,533310.000122197,166234.00012159348,-0.08426534518235256,51.37898620052631,11/27/2022
The Duke,Kingston Upon Thames,www.thedukeofyork.com,128019405,E09000021,St. Mark's,E05000412,Kingston Upon Thames ,,,517909.0001221001,167240.00012169778,-0.30514091732304355,51.39143748265301,11/27/2022
Lamb Inn,Kingston Upon Thames,www.lambsurbiton.co.uk,128002149,E09000021,St. Mark's,E05000412,73 Brighton Road,Kingston Upon Thames,,517583.0001221001,167242.00012169778,-0.3098240822737775,51.39152312183114,11/27/2022
Black Lion,Kingston Upon Thames,www.theblacklionsurbiton.co.uk,100000000000,E09000021,St. Mark's,E05000412,58 Brighton Road,Kingston Upon Thames,,517648.0001221001,167246.00012169778,-0.30888886256577963,51.39154560094808,11/27/2022
Woodies,Kingston Upon Thames,www.woodiesfreehouse.co.uk,128018554,E09000021,St. James,E05000411,Thetford Road Kingston Upon Thames,,,520645.000122197,167331.00012169778,-0.26580104091344275,51.39168020561406,11/27/2022
The Brave New World,Kingston Upon Thames,www.bravebar.co.uk,128001583,E09000021,Berrylands,E05000401,22-26 Berrylands Road,Kingston Upon Thames,,518670.0001221001,167377.00012169778,-0.29416146110876756,51.39251025771019,11/27/2022
Kings Arms,Merton,www.rampubcompany.co.uk/visit-pubs/kings-arms-mitcham,48126918,E09000024,Figge's Marsh,E05000460,260-262 London Road,Merton,,527781.000122197,169073.00012159348,-0.16265301821352957,51.40577498787902,11/27/2022
Partridge,Bromley,www.partridgebromley.co.uk,100000000000,E09000006,Bromley Town,E05000109,194 High Street,,,540167.000122197,169319.00012149662,0.015427785400351973,51.405059542,11/27/2022
The Fighting Cocks,Kingston Upon Thames,www.the-fighting-cocks.co.uk,100000000000,E09000021,Grove,E05000408,56 Old London Road,Kingston Upon Thames,,518455.0001221001,169335.00012169778,-0.2965966949404561,51.41015503216918,11/27/2022
The White Horse,Bromley,www.mitchellsandbutlers.com,10070003978,E09000006,Copers Cope,E05000113,205-213 High Street,,,537048.000122197,169338.00012149662,-0.02938340174123018,51.40599269242192,11/27/2022
Cavern,Merton,www.thecavernfreehouse.co.uk,48126372,E09000024,Raynes Park,E05000469,100-102 Coombe Lane,Merton,,522927.000122197,169345.00012159348,-0.23231738751681566,51.40929292150706,11/27/2022
Oak,Bromley,www.theoakbromley.com,100000000000,E09000006,Bickley,E05000106,206 Widmore Road,,,541587.000122197,169373.00012149662,0.035853403484582456,51.40519206705872,11/27/2022
Jolly Woodman,Bromley,www.thejollywoodman.co.uk,100000000000,E09000006,Copers Cope,E05000113,9 Chancery Lane,,,537948.000122197,169380.00012149662,-0.01643424811370363,51.40615192315936,11/27/2022
The Chancery,Bromley,www.thechancerybeckenham.co.uk,100000000000,E09000006,Copers Cope,E05000113,90 Bromley Road,,,537984.000122197,169403.00012149662,-0.015907985657444956,51.40634987086242,11/27/2022
Vuvu Club,Bromley,,10070003296,E09000006,Bromley Town,E05000109,30 East Street,,,540340.000122197,169496.00012149662,0.017983695890009744,51.40660746470412,11/27/2022
Swan,Richmond Upon Thames,www.swanhamptonwick.co.uk,100000000000,E09000027,Hampton Wick,E05000522,22 High Street,Richmond Upon Thames,,517572.0001221001,169528.00012169778,-0.3092244186024402,51.41207366260431,11/27/2022
Railway Tavern,Bromley,www.railwaytavernbromley.com,100000000000,E09000006,Bromley Town,E05000109,45 East Street,,,540337.000122197,169562.00012149662,0.017966705155495064,51.407201353656404,11/27/2022
Grey Horse,Kingston Upon Thames,www.grey-horse.co.uk,100000000000,E09000021,Canbury,E05000403,46 Richmond Road,Kingston Upon Thames,,518289.0001221001,169738.00012169778,-0.2988482023759044,51.413812127944894,11/27/2022
Bridge Bar,Bromley,,100000000000,E09000006,Copers Cope,E05000113,42827 High Street,,,537440.000122197,169823.00012149662,-0.02356244010526545,51.41025665210085,11/27/2022
Adelaide,Richmond Upon Thames,www.adelaideteddington.co.uk,100000000000,E09000027,Teddington,E05000530,57 Park Road,Richmond Upon Thames,,515888.0001221001,170725.00012169778,-0.33303911087124055,51.42318004284387,11/27/2022
Freelands Tavern,Bromley,www.thefreelandstavern.com,100000000000,E09000006,Plaistow And Sundridge,E05000125,31 Freelands Road,,,540891.000122197,169860.00012149662,0.026045974836550648,51.409742101188364,11/27/2022
Trafalgar,Merton,www.trafalgarfreehouse.co.uk,48126710,E09000024,Abbey,E05000455,23 High Path,Merton,,526028.000122197,169874.00012159348,-0.18756082784995504,51.41336682258616,11/27/2022
British Oak,Kingston Upon Thames,www.theoakpubkingston.co.uk,100000000000,E09000021,Canbury,E05000403,98 Richmond Road,Kingston Upon Thames,,518238.0001221001,169957.00012169778,-0.29950824792641545,51.41579128758804,11/27/2022
Goldsmiths Arms,Bromley,www.goldsmithsarms.com,100000000000,E09000006,Penge And Cator,E05000123,3 Croydon Road,,,535565.000122197,170054.00012159348,-0.05042040865164809,51.41278418640286,11/27/2022
Nelson Arms,Merton,www.nelsonarms.co.uk,48083684,E09000024,Abbey,E05000455,15 Merton High Street,Merton,,526207.000122197,170095.00012159348,-0.18490928560722308,51.415313374252925,11/27/2022
Ripley Arts Center,Bromley,http://www.bromleyarts.com/ripley-arts-centre/,0,E09000006,Plaistow And Sundridge,E05000125,24 Sundridge Avenue Bromley,,,540734.0364991948,170160.6052850932,0.023909638938108532,51.412482631830436,11/27/2022
Queens Head,Kingston Upon Thames,www.queensheadkingston.co.uk,100000000000,E09000021,Tudor,E05000415,144 Richmond Road,Kingston Upon Thames,,518212.0001221001,170214.00012169778,-0.29979627904807676,51.41810679923716,11/27/2022
The White Hart,Croydon,www.thewhitehartse19.co.uk,100000000000,E09000008,Crystal Palace & Upper Norwood,E05011467,96 Church Road,Croydon,,533511.000122197,170436.00012159348,-0.0797974293437279,51.41670490695405,11/27/2022
New Wimbledon Theatre,Merton,www.newwimbledontheatre.net/,48008413,E09000024,Abbey,E05000455,Wimbledon Theatre 93,The Broadway,Merton,525163.000122197,170438.00012159348,-0.1997948110881534,51.41862781082641,11/27/2022
The Pod,Merton,,48112845,E09000024,Abbey,E05000455,105-109 The Broadway,Merton,,525180.000122197,170450.00012159348,-0.19954619285163525,51.41873191463186,11/27/2022
Railway,Lambeth,www.therailwaysw16.co.uk,100000000000,E09000022,Streatham South,E05000431,2 Greyhound Lane,Lambeth,,529807.000122197,170459.00012159348,-0.1330304215934277,51.41777199630485,11/27/2022
Sydney Arms,Bromley,www.sydneyarms.com,100000000000,E09000006,Chislehurst,E05000111,Old Perry Street ,,,545226.0001222938,170498.00012139976,0.08860180992777622,51.41438180725004,11/27/2022
Numidie Bar And Bistro,Croydon,,100000000000,E09000008,Crystal Palace & Upper Norwood,E05011467,48 Westow Hill,Croydon,,533532.000122197,170702.00012159348,-0.07939535712186051,51.419090655515134,11/27/2022
Grape & Grain,Bromley,www.thegrapeandgrainse19.co.uk,100000000000,E09000006,Crystal Palace,E05000116,2 Anerley Hill,,,533749.000122197,170716.00012159348,-0.07627082866857796,51.41916531445639,11/27/2022
Builders Arms,Richmond Upon Thames,,100000000000,E09000027,Teddington,E05000530,38 Field Lane,Richmond Upon Thames,,516169.0001221001,170984.00012169778,-0.32891405180516275,51.42545060466458,11/27/2022
Earl Ferrers,Lambeth,,100000000000,E09000022,St. Leonard's,E05000428,22 Ellora Road,Lambeth,,529923.000122197,171068.00012159348,-0.1311396905359036,51.423219013768936,11/27/2022
Teddington Arms,Richmond Upon Thames,www.teddingtonarms.com,100000000000,E09000027,Teddington,E05000530,38-40 High Street,Richmond Upon Thames,,516073.0001221001,171105.00012169778,-0.3302547269760539,51.42655792305218,11/27/2022
Landmark Arts Centre,Richmond Upon Thames,http://www.landmarkartscentre.org/,0,E09000027,Teddington,E05000530,Ferry Road Teddington Tw11 9nn ,,,516583.24810799956,171233.3414912969,-0.3228757841007884,51.42760679520111,11/27/2022
Tooting Tram & Social,Wandsworth,www.tootingtram.com,121014162,E09000032,Graveney,E05000616,Mitcham Road Wandsworth,,,527553.000122197,171347.00012159348,-0.16511122478466092,51.42626508501076,11/27/2022
Graveney & Meadow,Wandsworth,www.graveneyandmeadow.com,121014087,E09000032,Graveney,E05000616,40 Mitcham Road,Wandsworth,,527531.000122197,171362.00012159348,-0.16542212662482547,51.426404857140284,11/27/2022
The Hideaway,Lambeth,http://www.hideawaylive.co.uk/,100000000000,E09000022,St. Leonard's,E05000428,2 Empire Mews,Lambeth,,530075.000122197,171391.00012159348,-0.12883592065378363,51.42608721148074,11/27/2022
The Red Lion,Richmond Upon Thames,www.theredlionteddington.com,100000000000,E09000027,Fulwell And Hampton Hill,E05000518,164 Stanley Road,Richmond Upon Thames,,515138.0001221001,171507.00012169778,-0.34356823219120175,51.43036221484821,11/27/2022
St. Bartholomews Church,Lewisham,www.stbartschurchsydenham.org,100000000000,E09000023,Sydenham,E05000452,4 Westwood Hill,Lewisham,,535178.000122197,171623.00012159348,-0.055383930971276134,51.42697790425422,11/27/2022
Pratts & Payne,Lambeth,,200000000000,E09000022,St. Leonard's,E05000428,103 Streatham High Road,Lambeth,,530123.000122197,171786.00012159348,-0.12800070848369863,51.42962637712314,11/27/2022
The White Lion,Lambeth,www.whitelionsw16.co.uk,100000000000,E09000022,St. Leonard's,E05000428,234 Streatham High Road,Lambeth,,530108.000122197,171839.00012159348,-0.12819690928973326,51.43010617605136,11/27/2022
The Portico Gallery,Lambeth,,200000000000,E09000022,Knight's Hill,E05000424,23 Knights Hill,Lambeth,,531892.000122197,171929.00012159348,-0.10251284016002114,51.430502564191016,11/27/2022
Baring Hall,Lewisham,www.baringhallhotel.com,100000000000,E09000023,Downham,E05000442,368 Baring Road,Lewisham,,540591.000122197,172146.00012149662,0.02264175924658818,51.430360908077226,11/27/2022
Maestro Arts & Entertainment Centre,Lewisham,,10023230557,E09000023,Forest Hill,E05000444,Regent House Business Centre 291,Kirkdale,Lewisham,534931.000122197,172199.00012159348,-0.05871552960888348,51.43221354841626,11/27/2022
The Alma,Bexley,,100000000000,E09000004,Sidcup,E05011230,10 Alma Road,Bexley,,546339.0001222938,172450.00012139976,0.10540335437422388,51.43163733178351,11/27/2022
The Prince Of Wales,Richmond Upon Thames,,100000000000,E09000027,West Twickenham,E05000532,136 Hampton Road,Richmond Upon Thames,,514903.0001221001,172464.00012169778,-0.34663695206949446,51.43901226608248,11/27/2022
Five Bells,Lambeth,www.fivebellspub.co.uk,100000000000,E09000022,St. Leonard's,E05000428,68-70 Streatham High Road,Lambeth,,530193.000122197,172472.00012159348,-0.1267420112600511,51.4357759267529,11/27/2022
Porky's Wine Bar,Lambeth,,100000000000,E09000022,Streatham Hill,E05000430,23-27 Sternhold Avenue,Lambeth,,530209.000122197,172727.00012159348,-0.12641813770445587,51.43806413590021,11/27/2022
The Prince Albert,Richmond Upon Thames,www.princealberttwickenham.co.uk,100000000000,E09000027,West Twickenham,E05000532,30 Hampton Road,Richmond Upon Thames,,515168.0001221001,172764.00012169778,-0.3427279046045202,51.441655090075976,11/27/2022
The White Hart,Lambeth,www.whitehart-tulsehill.com,100000000000,E09000022,Thurlow Park,E05000434,367 Norwood Road,Lambeth,,531741.000122197,172917.00012159348,-0.10431631523812282,51.43941752651381,11/27/2022
The Railway Tavern,Lambeth,www.therailwaytulsehill.co.uk,100000000000,E09000022,Thurlow Park,E05000434,7 Station Rise,Lambeth,,531776.000122197,172942.00012159348,-0.10380367267612986,51.43963407585729,11/27/2022
Sussex Arms,Richmond Upon Thames,www.thesussexarmstwickenham.co.uk,100000000000,E09000027,West Twickenham,E05000532,42309 Staines Road,Richmond Upon Thames,,515054.0001221001,172973.00012169778,-0.3442996821674053,51.44355692983075,11/27/2022
The Bedford,Wandsworth,www.thebedford.com,100000000000,E09000032,Balham,E05000610,77 Bedford Hill,Wandsworth,,528719.000122197,173145.00012159348,-0.147693672113548,51.44216166191894,11/27/2022
The Windmill,Lewisham,www.windmillbrixton.co.uk,100000000000,E09000023,Perry Vale,E05000450,22 Blenheim Gardens,Lambeth,,535607.000122197,173195.00012159348,-0.04861428385435728,51.44100357201525,11/27/2022
Hagen & Hyde,Wandsworth,www.hagenandhyde.com,121049927,E09000032,Balham,E05000610,157 Balham High Road,Wandsworth,,528524.000122197,173268.00012159348,-0.1504535389206698,51.443311463822546,11/27/2022
Fox,Richmond Upon Thames,www.thefoxtwickenham.co.uk,100000000000,E09000027,Twickenham Riverside,E05000531,39 Church Street,Richmond Upon Thames,,516353.0001221001,173289.00012169778,-0.3255108671826069,51.446131951089285,11/27/2022
Riva Lounge,Lewisham,,100000000000,E09000023,Rushey Green,E05000451,3 Bromley Road,Lewisham,,537698.000122197,173509.00012149662,-0.018421803329134602,51.44332101798433,11/27/2022
Patchworks,Richmond Upon Thames,www.cabbagepatch.co.ukwhats-on,100000000000,E09000027,Twickenham Riverside,E05000531,67 London Road,Richmond Upon Thames,,516146.0001221001,173525.00012169778,-0.3284110573252392,51.448295797642444,11/27/2022
Kings Head,Bexley,www.kingsheadbexley.co.uk,200000000000,E09000004,St. Mary's & St. James,E05011229,65 Bexley High Street,Bexley,,549512.0001222938,173618.00012139976,0.151512868654187,51.441304812752755,11/27/2022
Nuvo Lounge,Lewisham,,10070773731,E09000023,Rushey Green,E05000451,177 Rushey Green,Lewisham,,537732.000122197,173627.00012149662,-0.01788690499930063,51.4443732400631,11/27/2022
The Broadway Theatre,Lewisham,www.broadwaytheatre.org.uk,10091912968,E09000023,Rushey Green,E05000451,Old Town Hall Rushey Green,Lewisham,,537604.000122197,173658.00012149662,-0.019715725886634575,51.44468296246623,11/27/2022
Crown,Richmond Upon Thames,www.crowntwickenham.co.uk,100000000000,E09000027,Twickenham Riverside,E05000531,174 Richmond Road,Richmond Upon Thames,,516928.0001221001,173808.00012169778,-0.3170680644718304,51.4506786369488,11/27/2022
Black Horse,Bexley,,100000000000,E09000004,St. Mary's & St. James,E05011229,63 Albert Road,Bexley,,549509.0001222938,173953.00012139976,0.15161125419255556,51.4443159981393,11/27/2022
St Stephen's Church,Richmond Upon Thames,https://www.st-stephens.org.uk/,0,E09000027,Twickenham Riverside,E05000531,Richmond Road East Twickenham Middlesex Tw1 2pd ,,,517323.4318847954,174006.7916865945,-0.3113133714183057,51.452383697123835,11/27/2022
Marlborough,Richmond Upon Thames,www.themarlboroughrichmond.co.uk,100000000000,E09000027,South Richmond,E05000528,46 Friars Stile Road,Richmond Upon Thames,,518435.0001221001,174277.00012169778,-0.29523118104337664,51.454581022961165,11/27/2022
Florence,Lambeth,www.florencehernehill.com,100000000000,E09000022,Herne Hill,E05000423,131-133 Dulwich Road,Lambeth,,531906.000122197,174350.00012159348,-0.10140923167868231,51.45225842441877,11/27/2022
Lord Northbrook,Lewisham,www.thelordnorthbrook.co.uk,100000000000,E09000023,Lee Green,E05000447,116 Burnt Ash Road,Lewisham,,539911.000122197,174356.00012149662,0.013738899789978375,51.45039060577953,11/27/2022
Gigalum,Lambeth,www.gigalum.com,200000000000,E09000022,Clapham Common,E05000418,42954 Cavendish Parade,Clapham Common South Side,Lambeth,528890.000122197,174370.00012159348,-0.14478802878739716,51.4531329092716,11/27/2022
Eltham Gpo,Greenwich,www.elthamgpo.com,100000000000,E09000011,Eltham South,E05000219,4 Passey Place,Greenwich,,542803.0001222938,174373.00012149662,0.05534181645296188,51.449821314140365,11/27/2022
Off The Cuff,Lambeth,www.offthecuffbar.com,100000000000,E09000022,Herne Hill,E05000423,301-303 Railton Road,Lambeth,,531968.000122197,174374.00012159348,-0.1005084062047203,51.45245967777206,11/27/2022
The White Horse,Lambeth,,100000000000,E09000022,Brixton Hill,E05000417,94 Brixton Hill,Lambeth,,530715.000122197,174546.00012159348,-0.11846948404168565,51.454296279555344,11/27/2022
Herne Tavern,Southwark,www.thehernetavern.co.uk,200000000000,E09000028,Dulwich Hill,E05011099,2 Forest Hill Road,Southwark,,534669.000122197,174571.00012159348,-0.06158002254864555,51.453594112934965,11/27/2022
Station,Lewisham,www.stationhotelhithergreen.co.uk,0,E09000023,Lee Green,E05000447,14 Staplehurst Rd Hither Green,London,,539063.000122197,174573.00012149662,0.0016269804275197907,51.45254973404217,11/27/2022
The Hootananny Brixton,Lambeth,www.hootanannybrixton.co.uk,100000000000,E09000022,Herne Hill,E05000423,95 Effra Road,Lambeth,,531187.000122197,174627.00012159348,-0.1116493605874594,51.45491509105734,11/27/2022
Great Exhibition,Southwark,www.greatexhibition.pub,200000000000,E09000028,Goose Green,E05011103,193 Crystal Palace Road,Southwark,,534078.000122197,174644.00012159348,-0.0700539770893149,51.454390488145116,11/27/2022
Effra Social,Lambeth,www.effrasocial.com,100000000000,E09000022,Herne Hill,E05000423,89 Effra Road,Lambeth,,531172.000122197,174653.00012159348,-0.11185550572900774,51.4551522471636,11/27/2022
Rivoli Ballroom,Lewisham,www.rivoliballroom.com,100000000000,E09000023,Crofton Park,E05000441,350 Brockley Road,Lewisham,,536467.000122197,174745.00012149662,-0.035648787777515165,51.454727308761605,11/27/2022
The Mct At Alleyn's,Southwark,www.mct.alleyns.org.uk,0,E09000028,Goose Green,E05011103,Alleyn's School Townley Road,East Dulwich,,533392.4970703945,174821.82287549973,-0.0798481999770829,51.45615062855035,11/27/2022
Crayford Arms,Bexley,www.crayfordarms.co.uk,10011862323,E09000004,Crayford,E05011222,37 Crayford High Street,Bexley,,551353.0001222938,174882.00012129545,0.17852552841754812,51.45217422323918,11/27/2022
The Duke,Richmond Upon Thames,,100000000000,E09000027,South Richmond,E05000528,2 Duke Street,Richmond Upon Thames,,517906.0001221001,174970.00012169778,-0.3026109815339081,51.46092057659437,11/27/2022
Fox & Firkin,Lewisham,www.foxfirkin.com,100000000000,E09000023,Lewisham Central,E05000448,316 Lewisham High Street,Lewisham,,538048.000122197,174981.00012149662,-0.012813852713046548,51.456464921888916,11/27/2022
Red Cow,Richmond Upon Thames,www.redcowpub.com,100000000000,E09000027,South Richmond,E05000528,59 Sheen Road,Richmond Upon Thames,,518417.0001221001,175015.00012169778,-0.2952429831814366,51.46121836694212,11/27/2022
Bar Nuvo,Lewisham,,100000000000,E09000023,Lewisham Central,E05000448,286 Lewisham High Street,Lewisham,,538095.000122197,175037.00012149662,-0.01211586081064219,51.45695673784229,11/27/2022
Ivy House,Southwark,www.ivyhousenunhead.com,10013526983,E09000028,Peckham Rye,E05011111,40 Stuart Road,Southwark,,535427.000122197,175047.00012159348,-0.05049388212402185,51.45769126535562,11/27/2022
Gremio De Brixton,Lambeth,,10090196516,E09000022,Tulse Hill,E05000435,Lambeth ,,,530977.000122197,175094.00012159348,-0.11449742885622435,51.45916097749136,11/27/2022
The Red Lion,Greenwich,,10010201622,E09000011,Shooters Hill,E05000227,6 Red Lion Place,Greenwich,,543191.0001222938,176649.00012149662,0.0618441695624158,51.470177144410926,11/27/2022
Long Pond,Greenwich,,100000000000,E09000011,Eltham North,E05000218,110 Westmount Road,Greenwich,,543191.0001222938,175118.00012149662,0.06122397710056839,51.45641844957983,11/27/2022
The Prince Albert,Bexley,www.theprincealbert.pub,100000000000,E09000004,Bexleyheath,E05011219,2 Broadway,Bexley,,549671.0001222938,175143.00012139976,0.15444432311423026,51.45496680941004,11/27/2022
East Dulwich Tavern,Southwark,www.eastdulwichtavern.com,10091912263,E09000028,Goose Green,E05011103,1 Lordship Lane,Southwark,,533836.000122197,175246.00012159348,-0.07330739963219708,51.45985822258447,11/27/2022
Upstairs At The Ritzy,Lambeth,www.picturehouses.com/cinema/Ritzy_Picturehouse/Whats_On?filter=Upstairs,100023387982,E09000022,Coldharbour,E05000420,Brixton Rd London,,,531087.000122197,175289.00012159348,-0.11284252391409358,51.46088810903961,11/27/2022
So.uk,Lambeth,www.soukclapham.co.uk/,100000000000,E09000022,Clapham Town,E05000419,165 Clapham High Street,Lambeth,,529521.000122197,175310.00012159348,-0.13536639937794762,51.46143742541257,11/27/2022
The Prince Of Wales,Lambeth,,100000000000,E09000022,Coldharbour,E05000420,467-469 Brixton Road,Lambeth,,531052.000122197,175310.00012159348,-0.11333831304111086,51.461084956525795,11/27/2022
Dogstar,Lambeth,www.dogstarbrixton.com/,100000000000,E09000022,Coldharbour,E05000420,389 Coldharbour Lane,Lambeth,,531262.000122197,175316.00012159348,-0.1103146321840993,51.46109021348515,11/27/2022
Studio Voltaire,Lambeth,,100000000000,E09000022,Clapham Town,E05000419,1a Nelsons Row,Lambeth,,529710.000122197,175317.00012159348,-0.13264446754820716,51.46145705187346,11/27/2022
Stane Street Syndicate,Lambeth,www.thestanestreetsyndicate.co.uk,100000000000,E09000022,Clapham Town,E05000419,196 Clapham High Street,Lambeth,,529444.000122197,175334.00012159348,-0.1364655019281683,51.46167075053607,11/27/2022
Chip Shop Brixton,Lambeth,www.chipshopbxtn.com/home,200000000000,E09000022,Coldharbour,E05000420,380 Coldharbour Lane,Lambeth,,531246.000122197,175353.00012159348,-0.1105311013528006,51.46142646822798,11/27/2022
The Clapham Grand,Wandsworth,www.claphamgrand.com,100000000000,E09000032,Northcote,E05000619,21-25 St. John's Hill,Wandsworth,,527269.000122197,175365.00012159348,-0.16774926584080097,51.462442704749684,11/27/2022
Revolution,Lambeth,,100000000000,E09000022,Clapham Town,E05000419,95-97 Clapham High Street,Lambeth,,529704.000122197,175430.00012159348,-0.13268933486149084,51.462474046825676,11/27/2022
Infernos,Lambeth,www.infernos.co.uk,100000000000,E09000022,Clapham Town,E05000419,146 Clapham High Street,Lambeth,,529591.000122197,175443.00012159348,-0.13431046927471765,51.4626167767158,11/27/2022
Sheen Lane Centre,Richmond Upon Thames,https://www.richmond.gov.uk/services/hall_and_venue_bookings/sheen_lane_centre_venue_hire,0,E09000027,East Sheen,E05000517,74 Sheen Laneeast Sheen ,,,520438.88812259585,175468.17089799792,-0.2659952412834534,51.46486497404717,11/27/2022
Waterfront,Wandsworth,www.thewaterfrontlondon.co.uk,0,E09000032,St. Mary's Park,E05000622,Baltimore House Juniper Dr,London,,526130.000122197,175508.00012159348,-0.18408715931356928,51.46398301138969,11/27/2022
The Four Thieves,Wandsworth,www.fourthieves.pub,0,E09000032,Shaftesbury,E05000623,51 Lavender Gardens London,,,527736.000122197,175510.00012159348,-0.1609773348830684,51.463640733420796,11/27/2022
Lotus,Lambeth,www.lotusbar.co.uk,100000000000,E09000022,Clapham Town,E05000419,76 Clapham High Street,Lambeth,,529746.000122197,175513.00012159348,-0.13205455298067387,51.463210404585574,11/27/2022
Pop Brixton,Lambeth,www.popbrixton.org,10093056849,E09000022,Coldharbour,E05000420,Unit S05 Pop Brixton,49,Brixton Station Road,531226.000122197,175521.00012159348,-0.1107564948170514,51.462941035164775,11/27/2022
Royal Oak,Hounslow,www.royaloakisleworth.co.uk,100000000000,E09000018,Isleworth,E05000362,128 Worton Road,Hounslow,,515358.0001221001,175542.00012169778,-0.3390888569104811,51.46658729798333,11/27/2022
Simulacra Studio,Lambeth,www.simulacrastudio.com,100000000000,E09000022,Coldharbour,E05000420,302-304 Barrington Road,Lambeth,,531553.000122197,175548.00012159348,-0.1060414320922886,51.463107777641355,11/27/2022
Fu Manchu,Lambeth,,200000000000,E09000022,Larkhall,E05000425,15-16 Lendal Terrace,Lambeth,,530006.000122197,175594.00012159348,-0.1282837015182173,51.46387874010087,11/27/2022
Anchor,Wandsworth,,100000000000,E09000032,Latchmere,E05000617,61 Holgate Avenue,Wandsworth,,526573.000122197,175604.00012159348,-0.17767830435991125,51.46474694232232,11/27/2022
Battersea Arts Centre,Wandsworth,www.bac.org.uk,121015942,E09000032,Shaftesbury,E05000623,Lavender Hill Wandsworth,,,527854.000122197,175625.00012159348,-0.15923782512832782,51.464647694886224,11/27/2022
Phonox,Lambeth,www.phonox.co.uk/,100000000000,E09000022,Ferndale,E05000421,418 Brixton Road,Lambeth,,531059.000122197,175627.00012159348,-0.11312006646747766,51.463932431342414,11/27/2022
Club K Hounslow,Hounslow,,100000000000,E09000018,Hounslow Central,E05000358,236a High Street,Hounslow,,513630.0001221001,175644.00012169778,-0.36392461359323475,51.467853844955805,11/27/2022
Joiners Arms,Lewisham,,100000000000,E09000023,Lewisham Central,E05000448,66 Lewisham High Street,Lewisham,,538273.000122197,175681.00012149662,-0.009303333532601224,51.462700997980214,11/27/2022
Suburb Sw11,Wandsworth,,100000000000,E09000032,Latchmere,E05000617,148 Falcon Road,Wandsworth,,527254.000122197,175696.00012159348,-0.16784592752010097,51.46542109311733,11/27/2022
Castle,Hounslow,,100000000000,E09000018,Isleworth,E05000362,18 Upper Square,Hounslow,,516469.0001221001,175709.00012169778,-0.3230450980970409,51.46786080338798,11/27/2022
Landor,Lambeth,www.thelandorpub.com,100000000000,E09000022,Larkhall,E05000425,70 Landor Road,Lambeth,,530267.000122197,175742.00012159348,-0.12447365941866606,51.46514890140421,11/27/2022
Bread & Roses,Lambeth,www.breadandrosespub.com,100000000000,E09000022,Clapham Town,E05000419,68 Clapham Manor Street,Lambeth,,529538.000122197,175746.00012159348,-0.1349620157289199,51.46535221306542,11/27/2022
The Half Moon Putney,Wandsworth,www.halfmoon.co.uk,121002857,E09000032,Thamesfield,E05000625,93 Lower Richmond Road,Wandsworth,,523730.000122197,175760.00012159348,-0.21853397090647322,51.4667779172341,11/27/2022
O2 Academy Brixton,Lambeth,www.academymusicgroup.com/o2academybrixton,100000000000,E09000022,Ferndale,E05000421,211 Stockwell Road,Lambeth,,531027.000122197,175760.00012159348,-0.11353120271417537,51.46513520372803,11/27/2022
Dukes Head,Wandsworth,www.dukesheadputney.com,100000000000,E09000032,Thamesfield,E05000625,The Dukes Head 8,Lower Richmond Road,Wandsworth,523937.000122197,175765.00012159348,-0.2155533817714955,51.466777553276216,11/27/2022
Cafe Cairo,Lambeth,,100000000000,E09000022,Larkhall,E05000425,88 Landor Road,Lambeth,,530339.000122197,175767.00012159348,-0.12342841349319257,51.46535701439981,11/27/2022
Old Nuns Head,Southwark,www.theoldnunshead.co.uk,200000000000,E09000028,Nunhead & Queen's Road,E05011108,15 Nunhead Green,Southwark,,534883.000122197,175819.00012159348,-0.05802550021370836,51.46475943885763,11/27/2022
Blackheath Halls,Greenwich,www.blackheathhalls.com,100000000000,E09000011,Blackheath Westcombe,E05000215,23 Lee Road,Lewisham,,539695.000122197,175849.00012149662,0.011221900221628672,51.46386157882878,11/27/2022
Canavan's Peckham Pool Club,Southwark,,200000000000,E09000028,Rye Lane,E05011113,Flat 188,Rye Lane,Southwark,534392.000122197,176025.00012159348,-0.06501198452077159,51.46672767617534,11/27/2022
Block 336,Lambeth,www.block336.com,10091845237,E09000022,Ferndale,E05000421,336 Brixton Road,Lambeth,,531151.000122197,176041.00012159348,-0.11164266723910019,51.46763201195888,11/27/2022
Tasty Bakery,Southwark,,200000000000,E09000028,Rye Lane,E05011113,207 Rye Lane,Southwark,,534393.000122197,176073.00012159348,-0.06497934145962826,51.46715883504692,11/27/2022
Phoenix,Lambeth,www.phoenixclapham.com,200000000000,E09000022,Larkhall,E05000425,348 Clapham Road,Lambeth,,530180.000122197,176093.00012159348,-0.1255962296928026,51.46832362118532,11/27/2022
O'neills,Lewisham,www.oneills.co.uk/national-search/london/blackheath,200000000000,E09000023,Blackheath,E05000438,52 Tranquil Vale,Lewisham,,539577.000122197,176122.00012149662,0.009631960805189571,51.46634415420671,11/27/2022
John The Unicorn,Southwark,www.johntheunicorn.com,0,E09000028,Rye Lane,E05011113,157-159 Rye Ln London,,,534323.000122197,176194.00012159348,-0.0659406067999548,51.468262936391504,11/27/2022
Red Lion,Hounslow,www.red-lion.info,100000000000,E09000018,Syon,E05000364,92-94 Linkfield Road,Hounslow,,515807.0001221001,176268.00012169778,-0.33238919002778733,51.47302140123893,11/27/2022
Copeland Gallery,Southwark,,10091904160,E09000028,Rye Lane,E05011113,Unit C2 Industrial Park,133,Copeland Road,534444.000122197,176334.00012159348,-0.06414618193486392,51.46949243518902,11/27/2022
Copeland Park & Bussey Building,Southwark,,10091904160,E09000028,Rye Lane,E05011113,Unit C2 Industrial Park,133,Copeland Road,534444.000122197,176334.00012159348,-0.06414618193486392,51.46949243518902,11/27/2022
Brixton Jamm,Lambeth,www.brixtonjamm.org/,100000000000,E09000022,Vassall,E05000436,261 Brixton Road,Lambeth,,531238.000122197,176338.00012159348,-0.11028043609550119,51.47028117346038,11/27/2022
The Bulls Head Barnes,Richmond Upon Thames,www.thebullsheadbarnes.com,100000000000,E09000027,Barnes,E05000516,373 Lonsdale Road,Richmond Upon Thames,,521579.000122197,176429.00012169778,-0.2492582109380534,51.473257424646484,11/27/2022
Longfield Hall,Lambeth,,10091908880,E09000022,Vassall,E05000436,50 Knatchbull Road,Lambeth,,531713.000122197,176456.00012159348,-0.10340085854368825,51.47123132467824,11/27/2022
Bull Hotel,Greenwich,,100000000000,E09000011,Shooters Hill,E05000227,151 Shooters Hill,Greenwich,,543637.0001222938,176506.00012149662,0.06820361798492895,51.46877899091203,11/27/2022
Le Quecumbar And Brasserie,Wandsworth,www.quecumbar.co.uk,100000000000,E09000032,St. Mary's Park,E05000622,42-44 Battersea High Street,Wandsworth,,526916.000122197,176584.00012159348,-0.1723906974813228,51.47347833006799,11/27/2022
The White Horse,Hammersmith And Fulham,www.whitehorsesw6.com,34069416,E09000013,Parsons Green And Walham,E05000260,42795 Parsons Green,Hammersmith And Fulham,,525103.000122197,176595.00012159348,-0.1984802944638766,51.47398107053605,11/27/2022
Jazzlive At The Crypt,Southwark,www.jazzlive.co.uk,0,E09000028,St. Giles,E05011115,St. Giles Church Camberwell Church St,London,,532969.000122197,176635.00012159348,-0.08525854559174639,51.472546272404685,11/27/2022
Grove,Wandsworth,www.thegrovebattersea.co.uk/contactfind-us,100000000000,E09000032,Queenstown,E05000620,279 Battersea Park Road,Wandsworth,,528369.000122197,176684.00012159348,-0.15144258556878035,51.47404925082151,11/27/2022
The Tiger,Southwark,,200000000000,E09000028,Camberwell Green,E05011096,18 Camberwell Green,Southwark,,532577.000122197,176703.00012159348,-0.09087441641111654,51.47324943166757,11/27/2022
Prince Of Peckham,Southwark,,200000000000,E09000028,Rye Lane,E05011113,1 Clayton Road,Southwark,,534463.000122197,176732.00012159348,-0.06372129857416942,51.47306490972323,11/27/2022
Tap On The Line,Richmond Upon Thames,www.tapontheline.co.uk,0,E09000027,Kew,E05000524,Kew Garden Station Station Approach,Richmond,,519184.000122197,176743.00012169778,-0.28362353822173864,51.47658950983725,11/27/2022
The Magic Garden,Wandsworth,,10024085883,E09000032,Queenstown,E05000620,231 Battersea Park Road,Wandsworth,,528522.000122197,176771.00012159348,-0.14920891491589502,51.47479645175721,11/27/2022
The White Horse,Hillingdon,www.oldenglishpub.com,100000000000,E09000017,Heathrow Villages,E05000331,530 Bath Road,Hillingdon,,504933.0001221001,176857.00012169778,-0.48873725225475056,51.48043794988463,11/27/2022
Bunker Club,Lewisham,,100000000000,E09000023,Brockley,E05000439,46 Deptford Broadway,Lewisham,,537242.000122197,176915.00012149662,-0.023657705717271077,51.47404218434127,11/27/2022
Royal Albert,Lewisham,www.royalalbertpub.com,100000000000,E09000023,Brockley,E05000439,460 New Cross Road,Lewisham,,536999.000122197,176971.00012149662,-0.02713305677537781,51.47460437235746,11/27/2022
Five Bells,Lewisham,,100000000000,E09000023,New Cross,E05000449,155 New Cross Road,Lewisham,,535748.000122197,176984.00012159348,-0.04513187662169904,51.47502281078502,11/27/2022
The Amersham Arms,Lewisham,www.theamershamarms.co.uk,100000000000,E09000023,Brockley,E05000439,388 New Cross Road,Lewisham,,536729.000122197,177012.00012149662,-0.031002875944306424,51.475038176872005,11/27/2022
New Cross Inn,Lewisham,www.newcrossinn.com,100000000000,E09000023,New Cross,E05000449,323 New Cross Road,Lewisham,,536413.000122197,177037.00012149662,-0.03554097186546133,51.47533915381398,11/27/2022
The Venue,Lewisham,www.thevenuelondon.com,100000000000,E09000023,New Cross,E05000449,42827 Clifton Rise,Lewisham,,536439.000122197,177048.00012149662,-0.035162538372150484,51.475431742712026,11/27/2022
Royal Oak,Bexley,www.theroyaloakpub.com,100000000000,E09000004,Northumberland Heath,E05011228,270 Bexley Road,Bexley,,550245.0001222938,177072.00012129545,0.1635203779417263,51.47214903232239,11/27/2022
Birds Nest,Lewisham,www.thebirdsnestpub.com,100000000000,E09000023,New Cross,E05000449,32 Deptford Church Street,Lewisham,,537426.000122197,177097.00012149662,-0.020938921069262872,51.4756331787729,11/27/2022
Chelsea Ram,Kensington And Chelsea,www.thechelsearam.co.uk,217008187,E09000020,Chelsea Riverside,E05009391,32 Burnaby Street,Kensington And Chelsea,,526304.000122197,177143.00012159348,-0.18099890758582557,51.478639607190516,11/27/2022
Number3london,Lewisham,,100000000000,E09000023,New Cross,E05000449,3 Creekside,Lewisham,,537469.000122197,177150.00012149662,-0.02029945183016441,51.47609905004914,11/27/2022
British Oak,Greenwich,www.britishoakblackheath.com,100000000000,E09000011,Kidbrooke With Hornfair,E05000223,109 Old Dover Road,Greenwich,,540807.000122197,177193.00012149662,0.027756469489024698,51.47566439323026,11/27/2022
Broadway House,Hammersmith And Fulham,,34069886,E09000013,Fulham Broadway,E05000254,474-476 Fulham Road,Hammersmith And Fulham,,525393.000122197,177232.00012159348,-0.1940802841820955,51.47964226066425,11/27/2022
O'briens,Hounslow,,100000000000,E09000018,Syon,E05000364,11 London Road,Hounslow,,517258.0001221001,177267.00012169778,-0.3111729338184139,51.48170212735042,11/27/2022
Bar 48,Lambeth,,100000000000,E09000022,Oval,E05000426,48 Brixton Road,Lambeth,,531205.000122197,177294.00012159348,-0.11040024166746137,51.47888102314502,11/27/2022
Brewery Tap,Hounslow,www.brewery-tap-brentford.co.uk,100000000000,E09000018,Syon,E05000364,Catherine Wheel Road Hounslow,,,517710.0001221001,177302.00012169778,-0.3046543222713042,51.48192282294071,11/27/2022
Job Centre,Lewisham,www.jobcentredeptford.com,0,E09000023,New Cross,E05000449,120 Deptford High St London,,,537187.000122197,177337.00012149662,-0.024285320665580843,51.477848121252194,11/27/2022
Under The Bridge,Hammersmith And Fulham,www.underthebridge.co.uk,0,E09000013,Parsons Green And Walham,E05000260,Stanford Bridge Fulham Road,Fulham,London,525717.000122197,177408.00012159348,-0.18935385391799914,51.481152225731954,11/27/2022
Queens Head,Hounslow,www.queens-head-cranford.co.uk,200000000000,E09000018,Heston West,E05000357,123 High Street,Hounslow,,510824.0001221001,177434.00012169778,-0.40374742857346513,51.48450085916899,11/27/2022
Watermans Arms,Hounslow,www.watermans-arms.co.uk,100000000000,E09000018,Syon,E05000364,1 Ferry Lane,Hounslow,,518072.0001221001,177483.00012169778,-0.299382469079708,51.48347428554599,11/27/2022
Brown Derby,Lambeth,www.thebrownderby.co.uk,100000000000,E09000022,Oval,E05000426,336 Kennington Park Road,Lambeth,,531097.000122197,177497.00012159348,-0.11187937562303289,51.480730560851455,11/27/2022
Olivers Jazz Bar,Greenwich,www.oliversjazzbar.co.uk,10010246216,E09000011,Greenwich West,E05000222,9 Nevada Street,Greenwich,,538426.000122197,177513.00012149662,-0.006384295518765232,51.47912796961092,11/27/2022
The Battersea Barge,Wandsworth,www.batterseabarge.com,10024084698,E09000032,Queenstown,E05000620,Tideway Dock Tideway Walk,Kirtling Street,Wandsworth,529381.000122197,177621.00012159348,-0.13653442917620476,51.48224023728422,11/27/2022
The Duke,Greenwich,www.thedukedeptford.com,100000000000,E09000011,Greenwich West,E05000222,125 Creek Road,Greenwich,,537559.000122197,177662.00012149662,-0.0188047643502304,51.48067859538678,11/27/2022
The Coach And Horses,Greenwich,www.the-coach-and-horses.co.uk,10010200567,E09000011,Greenwich West,E05000222,13 Greenwich Market,Greenwich,,538347.000122197,177693.00012149662,-0.007450798136394263,51.480764976929315,11/27/2022
Admiral Hardy,Greenwich,www.admiralhardy.co.uk,100000000000,E09000011,Greenwich West,E05000222,7 College Approach,Greenwich,,538317.000122197,177751.00012149662,-0.00785987475124323,51.48129356658768,11/27/2022
Juju,Kensington And Chelsea,www.jujulondon.com,217112650,E09000020,Stanley,E05009405,Flat A-C 316-318,Kings Road,Kensington And Chelsea,526886.000122197,177885.00012159348,-0.17235500685247043,51.48517839716768,11/27/2022
Old Mill,Greenwich,,10010194001,E09000011,Glyndon,E05000221,1 Old Mill Road,Greenwich,,544811.0001222938,177921.00012139976,0.08567591874633808,51.48119574489661,11/27/2022
Trinity Laban Faculty Of Music,Greenwich,https:/www.trinitylaban.ac.uk/whats-on,0,E09000011,Greenwich West,E05000222,King Charles Court Old Royal Naval College,London,,538485.3565064967,177949.07611029595,-0.005358978140720215,51.483032489557154,11/27/2022
Finborough Theatre,Kensington And Chelsea,www.finboroughtheatre.co.uk,217112560,E09000020,Redcliffe,E05009402,118 Finborough Road,Kensington And Chelsea,,525764.000122197,177952.00012159348,-0.18848351471974462,51.48603126588081,11/27/2022
One Over The Ait,Hounslow,www.oneovertheait.co.uk,10093259940,E09000018,Brentford,E05000347,Unit 4 8,Kew Bridge Road,Hounslow,518938.000122197,177955.00012169778,-0.28675622220277985,51.48753537019598,11/27/2022
Fox,Bexley,www.thefoxpubbelvedere.co.uk,100000000000,E09000004,Belvedere,E05011218,79 Nuxley Road,Bexley,,549015.0001222938,177977.00012139976,0.14620365489052645,51.48060689838108,11/27/2022
The Eagle,Lambeth,www.eaglelondon.com/,100000000000,E09000022,Oval,E05000426,349 Kennington Lane,Lambeth,,530676.000122197,178038.00012159348,-0.11773905694913901,51.48569033082348,11/27/2022
Royal Vauxhall Tavern,Lambeth,www.vauxhalltavern.com,100000000000,E09000022,Prince's,E05000427,372 Kennington Lane,Lambeth,,530503.000122197,178054.00012159348,-0.12022359585913274,51.48587408942508,11/27/2022
Grosvenor,City Of Westminster,,200000000000,E09000033,Tachbrook,E05000645,79 Grosvenor Road,City Of Westminster,,529818.000122197,178063.00012159348,-0.13008141894711353,51.48611266670331,11/27/2022
The Old Dairy At Vauxhall City Farm,Lambeth,https://www.facebook.com/musicatthefarm,0,E09000022,Prince's,E05000427,Vauxhall City Farm165 Tyers Street,,,530676.6168823987,178172.06292679906,-0.11768054997882191,51.486895100667795,11/27/2022
The Globe,Hounslow,www.theglobebrentford.com,100000000000,E09000018,Brentford,E05000347,104 Windmill Road,Hounslow,,517443.0001221001,178196.00012169778,-0.30820061275638494,51.49001415101281,11/27/2022
The Troubadour,Kensington And Chelsea,www.troubadourlondon.com,217114565,E09000020,Redcliffe,E05009402,263-267 Old Brompton Road,Kensington And Chelsea,,525653.000122197,178204.00012159348,-0.18999180446192443,51.4883209295035,11/27/2022
Distillers,Hammersmith And Fulham,www.distillershammersmith.co.uk,34030273,E09000013,Hammersmith Broadway,E05000256,64 Fulham Palace Road,Hammersmith And Fulham,,523450.000122197,178208.00012159348,-0.2217076278624786,51.488842211885704,11/27/2022
Pilot,Hounslow,www.pilot-chiswick.co.uk,200000000000,E09000018,Turnham Green,E05000365,56 Wellesley Road,Hounslow,,519667.000122197,178218.00012169778,-0.2761712583654063,51.48974550394527,11/27/2022
The Hammersmith Club,Hammersmith And Fulham,,34149712,E09000013,Hammersmith Broadway,E05000256,11 Rutland Grove,Hammersmith And Fulham,,522971.000122197,178241.00012169778,-0.22859255266866432,51.489243214170266,11/27/2022
The Pheasantry,Kensington And Chelsea,www.pizzaexpresslive.com/venues/chelsea-the-pheasantry,217047024,E09000020,Stanley,E05009405,152 King's Rd Chelsea,London,,527465.000122197,178277.00012159348,-0.1638782286270836,51.48857142968084,11/27/2022
Pelton Arms,Greenwich,www.peltonarms.com,10010201122,E09000011,Peninsula,E05000225,23-25 Pelton Road,Greenwich,,539136.000122197,178336.00012149662,0.0041587519390564156,51.486350072554785,11/27/2022
Eventim Apollo,Hammersmith And Fulham,www.eventimapollo.com,34030384,E09000013,Hammersmith Broadway,E05000256,Queen Caroline Street Hammersmith And Fulham,,,523367.000122197,178355.00012159348,-0.22285123700436052,51.49018159399857,11/27/2022
Old Red Lion,Lambeth,www.theoldredlion.com,100000000000,E09000022,Prince's,E05000427,42 Kennington Park Road,Lambeth,,531647.000122197,178428.00012159348,-0.10361549907626598,51.48897025296443,11/27/2022
Eclipse,Kensington And Chelsea,www.eclipsebars.com,217103754,E09000020,Redcliffe,E05009402,158 Old Brompton Road,Kensington And Chelsea,,526226.000122197,178453.00012159348,-0.18165325177174116,51.49043130008446,11/27/2022
George Iv,Hounslow,www.georgeiv.co.uk,100000000000,E09000018,Turnham Green,E05000365,185 Chiswick High Road,Hounslow,,521096.000122197,178471.00012169778,-0.25550959375866494,51.49171526840097,11/27/2022
Hammersmith Ram,Hammersmith And Fulham,www.thehammersmithram.co.uk,34029868,E09000013,Hammersmith Broadway,E05000256,81 King Street,Hammersmith And Fulham,,523090.000122197,178528.00012169778,-0.22677912878312845,51.491796934099916,11/27/2022
Old Pack Horse,Hounslow,www.oldpackhorsechiswick.co.uk,100000000000,E09000018,Turnham Green,E05000365,434 Chiswick High Road,Hounslow,,520427.000122197,178532.00012169778,-0.26512152282701407,51.49240647644886,11/27/2022
Cask Pub And Kitchen,City Of Westminster,www.caskpubandkitchen.com,100000000000,E09000033,Tachbrook,E05000645,6 Charlwood Street,City Of Westminster,,529415.000122197,178549.00012159348,-0.13570478829621685,51.49057310242575,11/27/2022
Nell's Jazz & Blues,Hammersmith And Fulham,www.nellsjazzandblues.com,34151679,E09000013,Avonmore And Brook Green,E05000252,3 North End Crescent,Hammersmith And Fulham,,524555.000122197,178556.00012159348,-0.20567568358079566,51.49172770922717,11/27/2022
Brasserie & Wine Bar Toulouse Lautrec,Lambeth,www.toulouselautrec.co.uk,200000000000,E09000022,Prince's,E05000427,140 Newington Butts,Lambeth,,531764.000122197,178610.00012159348,-0.10186315174086412,51.490578737167844,11/27/2022
Albert's Club,Kensington And Chelsea,,217060804,E09000020,Courtfield,E05009393,92 Old Brompton Road,Kensington And Chelsea,,526590.000122197,178646.00012159348,-0.1763432754729757,51.49208458574332,11/27/2022
Hampton Court Palace,Southwark,www.hrp.org.uk/hampton-court-palace,200000000000,E09000028,Newington,E05011105,35 Hampton Street,Southwark,,531964.000122197,178675.00012159348,-0.09895943448448172,51.49111627878908,11/27/2022
Ealing Park Tavern,Ealing,www.ealingparktavern.co.uk,12080010,E09000009,Northfield,E05000182,222 South Ealing Road,Hounslow,,517686.0001221001,178762.00012169778,-0.30451300649696433,51.495051152176806,11/27/2022
Albion,Hammersmith And Fulham,www.thealbionpub.com,34056955,E09000013,Avonmore And Brook Green,E05000252,121 Hammersmith Road,Hammersmith And Fulham,,524172.000122197,178778.00012159348,-0.21111211775217056,51.49380733306639,11/27/2022
Montezuma London Club,Kensington And Chelsea,www.montezumalondon.com,217036855,E09000020,Brompton & Hans Town,E05009389,17 Harrington Road,Kensington And Chelsea,,526738.000122197,178804.00012159348,-0.17415560137515387,51.49347151956033,11/27/2022
Cadogan Hall,Kensington And Chelsea,www.cadoganhall.com,217078765,E09000020,Royal Hospital,E05009403,5 Sloane Terrace,Kensington And Chelsea,,528020.000122197,178823.00012159348,-0.15568988106856588,51.49335340024676,11/27/2022
Lamb,Ealing,www.sizzlingpubs.co.uk/findapub/london/thecrownnortholt,12025543,E09000009,Norwood Green,E05000186,137 Norwood Road,Ealing,,512847.0001221001,178832.00012169778,-0.37417462918904976,51.4966672169113,11/27/2022
Bollo House,Ealing,www.thebollohouse.com,12097755,E09000009,Southfield,E05000191,13 Bollo Lane,Ealing,,520186.000122197,178844.00012169778,-0.2684854016297581,51.495262150503955,11/27/2022
R&v Music Ltd,Tower Hamlets,,6078489,E09000030,Blackwall & Cubitt Town,E05009318,10 Sextant Avenue,Tower Hamlets,,538620.000122197,178845.00012149662,-0.0030691078279585847,51.491051224052676,11/27/2022
The Space,Tower Hamlets,www.space.org.uk,6060149,E09000030,Island Gardens,E05009324,269 Westferry Road,Tower Hamlets,,537264.000122197,178848.00012149662,-0.02258962152169922,51.49140905609677,11/27/2022
Cin Lumire,Kensington And Chelsea,www.institut-francais.org.uk/cine-lumiere,217107579,E09000020,Brompton & Hans Town,E05009389,17 Queensberry Place,Kensington And Chelsea,,526635.000122197,178865.00012159348,-0.17561676355568048,51.4940428689551,11/27/2022
Corsica Studios,Southwark,www.corsicastudios.com,10013530837,E09000028,North Walworth,E05011107,Southwark ,,,532085.000122197,178888.00012159348,-0.09713764606843979,51.493002369861806,11/27/2022
Plough,Ealing,www.ploughnorthfields.co.uk,12153213,E09000009,Northfield,E05000182,297 Northfield Avenue,Ealing,,517232.0001221001,178931.00012169778,-0.3109945059113641,51.49666457182133,11/27/2022
Apollo Victoria Theatre,City Of Westminster,www.theapollovictoria.com,100000000000,E09000033,Warwick,E05000647,17 Wilton Road,City Of Westminster,,529029.000122197,179061.00012159348,-0.14107496329449082,51.49526307803617,11/27/2022
St John Smiths Square,City Of Westminster,https://www.sjss.org.uk/,0,E09000033,St. James's,E05000644,St John's Smith Square ,,,530111.538086094,179109.0819086954,-0.12547001178786352,51.49544706989952,11/27/2022
Bianca Road Brew Co,Southwark,,200000000000,E09000028,London Bridge & West Bermondsey,E05011104,19 Pages Walk,Southwark,,533395.000122197,179127.00012159348,-0.07818633856776318,51.49484275789494,11/27/2022
Victoria Palace Theatre,City Of Westminster,www.victoriapalacetheatre.co.uk,200002349882,E09000033,St. James's,E05000644,Victoria St Westminster,London,,529037.000122197,179180.00012159348,-0.140916248783452,51.496330797061326,11/27/2022
Studio 338,Greenwich,www.studio338.co.uk/,100000000000,E09000011,Peninsula,E05000225,338 Tunnel Avenue,Greenwich,,539264.000122197,179293.00012149662,0.006378926130508696,51.49491912345394,11/27/2022
Ministry Of Sound,Southwark,club.ministryofsound.com,200000000000,E09000028,St. George's,E05011114,103 Gaunt Street,Southwark,,532040.000122197,179347.00012159348,-0.0976137723616264,51.497138170030446,11/27/2022
The Other Palace,City Of Westminster,www.theotherpalace.co.uk,10033568019,E09000033,St. James's,E05000644,12 Palace Street,City Of Westminster,,529048.000122197,179388.00012159348,-0.14068176985392217,51.498197742280595,11/27/2022
Iklectik,Lambeth,www.iklectikartlab.com,10091119428,E09000022,Bishop's,E05000416,The Grey Studio 20,Carlisle Lane,Lambeth,530836.000122197,179409.00012159348,-0.11492744527321852,51.497975398002026,11/27/2022
Goethe Institute,City Of Westminster,,100000000000,E09000033,Knightsbridge And Belgravia,E05000637,50 Princes Gate,City Of Westminster,,526860.000122197,179421.00012159348,-0.17217711288459528,51.498989707711566,11/27/2022
Canada Water Cultural Space,Southwark,,10090284129,E09000028,Rotherhithe,E05011112,21 Surrey Quays Road,Southwark,,535513.000122197,179456.00012159348,-0.04756497722979679,51.49729577685145,11/27/2022
Printworks,Southwark,,200003500401,E09000028,Surrey Docks,E05011117,1 Surrey Quays Road ,,,535881.000122197,179460.00012159348,-0.04226471550840029,51.49724337406863,11/27/2022
Westminster Abbey,City Of Westminster,www.westminster-abbey.org,0,E09000033,St. James's,E05000644,20 Deans Yd London,,,530086.000122197,179479.00012159348,-0.12570132287699312,51.49877766036548,11/27/2022
Central Hall Westminster,City Of Westminster,www.c-h-w.com,0,E09000033,St. James's,E05000644,Westminster Central Hall Storeys Gate,City Of Westminster,,529861.9916992933,179551.69232129306,-0.12890025549161693,51.499482513341725,11/27/2022
Royal Albert Hall,City Of Westminster,www.royalalberthall.com,0,E09000033,Knightsbridge And Belgravia,E05000637,Kensington Gore City Of Westminster,,,526617.9550781995,179640.67932079732,-0.17558378074438427,51.501018452034025,11/27/2022
Primo Bar,Lambeth,,10008793643,E09000022,Bishop's,E05000416,200 Westminster Bridge Road,Lambeth,,530802.000122197,179657.00012159348,-0.11532506669282819,51.500212202328214,11/27/2022
Hyde,Kensington And Chelsea,,217044013,E09000020,Queen's Gate,E05009401,1 Kensington High Street,Kensington And Chelsea,,525887.000122197,179673.00012159348,-0.18609875455564628,51.50147225496455,11/27/2022
Gladstone Arms,Southwark,www.thegladpub.co.uk,200000000000,E09000028,Borough & Bankside,E05011095,64 Lant Street,Southwark,,532314.000122197,179716.00012159348,-0.09353001444375332,51.5003904899722,11/27/2022
28 West Bar,Tower Hamlets,,6151005,E09000030,Canary Wharf,E05009323,28 Westferry Circus,Tower Hamlets,,537098.000122197,179736.00012149662,-0.02463441425764161,51.49942994097773,11/27/2022
Crown & Sceptre,Hammersmith And Fulham,www.crownandsceptreshepherdsbush.co.uk,34010558,E09000013,Askew,E05000251,57 Melina Road,Hammersmith And Fulham,,522502.000122197,179750.00012169778,-0.23482111058220123,51.50290829236933,11/27/2022
O2 Shepherd's Bush Empire,Hammersmith And Fulham,www.academymusicgroup.com/o2shepherdsbushempire,34030760,E09000013,Shepherd's Bush Green,E05000263,Shepherds Bush Green Hammersmith And Fulham,,,523329.000122197,179771.00012159348,-0.22290334716034743,51.502917153890465,11/27/2022
The Vaults,Lambeth,,10091121720,E09000022,Bishop's,E05000416,Arch 236 Leake Street,Lambeth,,530911.000122197,179799.00012159348,-0.1137027383583176,51.50146320668648,11/27/2022
Old Vic Theatre,Lambeth,www.oldvictheatre.com,200000000000,E09000022,Bishop's,E05000416,103 The Cut,Lambeth,,531346.000122197,179806.00012159348,-0.1074358861115693,51.50142518238649,11/27/2022
New Inn,Ealing,www.thenewinnealing.com,12083098,E09000009,Walpole,E05000192,62 St. Marys Road,Ealing,,517682.0001221001,179823.00012169778,-0.30421661058236527,51.504588853363494,11/27/2022
Belushi's Shepherd's Bush,Hammersmith And Fulham,,34032634,E09000013,Addison,E05000250,13-15 Shepherds Bush Green,Hammersmith And Fulham,,523768.000122197,179856.00012159348,-0.21655107984799274,51.503585162267115,11/27/2022
The Miller,Southwark,www.themiller.co.uk,200000000000,E09000028,London Bridge & West Bermondsey,E05011104,93 Snowsfields,Southwark,,532810.000122197,179856.00012159348,-0.08633487243171269,51.501532392670235,11/27/2022
Bermondsey Yard Cafe,Southwark,www.bermondseyyardcafe.co.uk,10091904712,E09000028,London Bridge & West Bermondsey,E05011104,40 Bermondsey Street,Southwark,,533172.000122197,179898.00012159348,-0.0811060819567776,51.501824674346345,11/27/2022
Underdog Gallery,Southwark,https://www.theunderdog.london/,0,E09000028,London Bridge & West Bermondsey,E05011104,Arch 6 Crucifix Lane London ,,,533239.4816895947,179903.02368109673,-0.08013241981609634,51.50185391670321,11/27/2022
The Prince Of Wales,Ealing,,12126407,E09000009,Elthorne,E05000176,62 Boston Road,Ealing,,515483.0001221001,179915.00012169778,-0.33585928996258707,51.50586953611103,11/27/2022
Greenwood Theatre,Southwark,https://www.kcl.ac.uk/greenwood/index.aspx,0,E09000028,London Bridge & West Bermondsey,E05011104,55 Weston Street London ,,,532948.2894898951,179926.6652826965,-0.08431681440198924,51.50213497684008,11/27/2022
Belushi's London Bridge,Southwark,www.belushis.com,10090282771,E09000028,Chaucer,E05011098,161-165 Borough High Street,Southwark,,532548.000122197,179939.00012159348,-0.09007659019826214,51.50233986894428,11/27/2022
Castle,Ealing,www.castleealing.co.uk,12083156,E09000009,Walpole,E05000192,36 St. Marys Road,Ealing,,517698.0001221001,179946.00012169778,-0.30394510478791553,51.50569111308741,11/27/2022
The Bush Theatre,Hammersmith And Fulham,www.bushtheatre.co.uk,34032421,E09000013,Shepherd's Bush Green,E05000263,7 Uxbridge Road,Hammersmith And Fulham,,523223.000122197,179948.00012169778,-0.22436810528494042,51.50453118656436,11/27/2022
Young Vic,Lambeth,www.youngvic.org/,100023226258,E09000022,Bishop's,E05000416,66 The Cut,Lambeth,,531462.000122197,179958.00012159348,-0.10570876649808833,51.502764322082534,11/27/2022
Gun27 Coldharbour,Tower Hamlets,www.thegundocklands.com,6081890,E09000030,Blackwall & Cubitt Town,E05009318,27 Cold Harbour,Tower Hamlets,,538378.000122197,179980.00012149662,-0.006107867068722563,51.501310828963554,11/27/2022
The O2,Greenwich,www.theo2.co.uk,10010224811,E09000011,Peninsula,E05000225,Unit 6 Peninsula Square,Greenwich,,539244.000122197,180024.00012149662,0.006379516498071449,51.50149354179613,11/27/2022
Omeara,Southwark,www.omearalondon.com,0,E09000028,Borough & Bankside,E05011095,6 O'meara St London,,,532342.000122197,180077.00012159348,-0.09299134896836236,51.503628427973936,11/27/2022
Indigo At The O?,Greenwich,https://www.theo2.co.uk/events/venue/indigo-at-the-o2,0,E09000011,Peninsula,E05000225,The O2 Peninsula Square,London,,539336.140930295,180087.90887399763,0.007731553343484755,51.50204517762753,11/27/2022
Great Suffolk Street Warehouse,Southwark,,200000000000,E09000028,Borough & Bankside,E05011095,29 Great Suffolk Street,Southwark,,531868.000122197,180092.00012159348,-0.09981189065719617,51.50387405606047,11/27/2022
Bush Hall,Hammersmith And Fulham,www.bushhallmusic.co.uk,34016974,E09000013,Shepherd's Bush Green,E05000263,Bush Hall 310,Uxbridge Road,Hammersmith And Fulham,522822.000122197,180100.00012169778,-0.23009056245212597,51.50598470107384,11/27/2022
George & Dragon,Ealing,www.bestspread.info,12103477,E09000009,South Acton,E05000188,183-185 High Street,Ealing,,520035.000122197,180115.00012169778,-0.270227217751543,51.50671850049226,11/27/2022
Menier Chocolate Factory,Southwark,www.menierchocolatefactory.com,200000000000,E09000028,Borough & Bankside,E05011095,Southwark ,,,532349.000122197,180135.00012159348,-0.09286877355097649,51.50414806436399,11/27/2022
Purcell Room,Lambeth,www.southbankcentre.co.uk/venues/purcell-room,0,E09000022,Bishop's,E05000416,Southbank Centre Belvedere Rd,Lambeth,London,530830.000122197,180254.00012159348,-0.1147003877723952,51.50557133640421,11/27/2022
Royal Festival Hall,Lambeth,www.southbankcentre.co.uk/venues/royal-festival-hall,200000000000,E09000022,Bishop's,E05000416,Southbank Centre Belvedere Road,Lambeth,,530830.000122197,180254.00012159348,-0.1147003877723952,51.50557133640421,11/27/2022
Institute Of Contemporary Arts,City Of Westminster,www.ica.art,100000000000,E09000033,St. James's,E05000644,12 Carlton House Terrace,City Of Westminster,,529815.000122197,180262.00012159348,-0.12931547911136643,51.50587734712542,11/27/2022
Rambert,Lambeth,,100000000000,E09000022,Bishop's,E05000416,99 Upper Ground,Lambeth,,531021.000122197,180269.00012159348,-0.11194405299173033,51.50566189298616,11/27/2022
"Olivier Theatre, National",Lambeth,www.nationaltheatre.org.uk/your-visit/national-theatre-venues/olivier-theatre,200000000000,E09000022,Bishop's,E05000416,Upper Ground Lambeth,,,530884.000122197,180375.00012159348,-0.11387777001123732,51.50664633245498,11/27/2022
Fine Line,Tower Hamlets,www.finelinecanarywharf.co.uk,6136274,E09000030,Canary Wharf,E05009323,29-30 Fishermans Walk,Tower Hamlets,,537395.000122197,180408.00012149662,-0.020096063828031165,51.505397167348846,11/27/2022
Mnky Hse,City Of Westminster,,10091854778,E09000033,West End,E05000649,10 Dover Street,City Of Westminster,,529067.000122197,180444.00012159348,-0.14002169948823529,51.50768447912714,11/27/2022
Heaven,City Of Westminster,www.heavennightclub-london.com,10033544602,E09000033,St. James's,E05000644,11 The Arches,Villiers Street,City Of Westminster,530282.000122197,180463.00012159348,-0.12251543683885745,51.50757638035178,11/27/2022
Notting Hill Arts Club,Kensington And Chelsea,www.nottinghillartsclub.com,217059366,E09000020,Campden,E05009390,19-21 Notting Hill Gate,Kensington And Chelsea,,525402.000122197,180464.00012159348,-0.19280204988122407,51.50868961536844,11/27/2022
Prospect Of Whitby,Tower Hamlets,www.greeneking-pubs.co.uk/pub/prospect-of-whitby-wapping,6027179,E09000030,St. Katharine's & Wapping,E05009330,57 Wapping Wall,Tower Hamlets,,535356.000122197,180486.00012159348,-0.049430282037526835,51.506590305561666,11/27/2022
Crown River Cruises,Tower Hamlets,,6186477,E09000030,St. Katharine's & Wapping,E05009330,Tower Millennium Pier Tower Pier,Tower Hamlets,,533405.000122197,180506.00012159348,-0.07752077010316191,51.50723407781509,11/27/2022
Sam Wanamaker Playhouse,Southwark,www.shakespearesglobe.com/theatre/whats-on/sam-wanamaker-playhouse,200000000000,E09000028,Borough & Bankside,E05011095,21 New Globe Walk,Southwark,,532192.000122197,180515.00012159348,-0.09498731398111472,51.50760007431416,11/27/2022
Bargehouse,Southwark,www.bargehouse.co.uk,0,E09000028,Borough & Bankside,E05011095,Oxo Tower Wharf ,,,531341.000122197,180517.00012159348,-0.10724306847881179,51.50781652054718,11/27/2022
St. James's Piccadilly,City Of Westminster,www.sjp.org.uk,100000000000,E09000033,St. James's,E05000644,197 Piccadilly,City Of Westminster,,529410.000122197,180528.00012159348,-0.1350507229294104,51.508360987848214,11/27/2022
Theatre Royal Haymarket,City Of Westminster,www.trh.co.uk,10033572053,E09000033,St. James's,E05000644,18 Suffolk Street,City Of Westminster,,529784.000122197,180533.00012159348,-0.12966218994225967,51.50832013553454,11/27/2022
St. Martin-In-The-Fields,City Of Westminster,www.stmartin-in-the-fields.org,100000000000,E09000033,St. James's,E05000644,5 St. Martin's Place,City Of Westminster,,530113.000122197,180577.00012159348,-0.12490740770716062,51.508639920274916,11/27/2022
Rum & Sugar,Tower Hamlets,,6151122,E09000030,Canary Wharf,E05009323,1 The Warehouse Hertsmere Road,Tower Hamlets,,537241.000122197,180594.00012149662,-0.022241432199548754,51.50710620025772,11/27/2022
The London Reign,City Of Westminster,,10033541003,E09000033,St. James's,E05000644,215-217 Piccadilly,City Of Westminster,,529524.000122197,180603.00012159348,-0.13338123241910022,51.50900894269967,11/27/2022
Tobacco Dock,Tower Hamlets,www.tobaccodocklondon.com,6009847,E09000030,St. Katharine's & Wapping,E05009330,50 Porters Walk,Tower Hamlets,,534781.000122197,180605.00012159348,-0.057665790737730496,51.50779725365735,11/27/2022
Garrick Theatre,City Of Westminster,www.nimaxtheatres.com/garrick-theatre,100000000000,E09000033,St. James's,E05000644,2 Charing Cross Road,City Of Westminster,,530031.000122197,180644.00012159348,-0.12606373885990602,51.50926097368149,11/27/2022
St. Magnus The Martyr,City And County Of The City Of London,www.stmagnusmartyr.org.uk,200000000000,E09000001,Billingsgate,E05009291,Lower Thames Street City Of London,,,533136.000122197,180652.00012159348,-0.08133981513502138,51.50860969662582,11/27/2022
Library,City Of Westminster,,100000000000,E09000033,St. James's,E05000644,112 St. Martin's Lane,City Of Westminster,,530058.000122197,180661.00012159348,-0.12566858172079787,51.509407549142196,11/27/2022
Prince Of Wales Theatre,City Of Westminster,www.princeofwalestheatre.co.uk,100023472712,E09000033,St. James's,E05000644,31 Coventry Street London,,,529744.000122197,180662.00012159348,-0.13019083081515512,51.50948873622194,11/27/2022
London Coliseum,City Of Westminster,www.londoncoliseum.org/,100023432456,E09000033,St. James's,E05000644,St. Martin's Lane; London ,,,530126.000122197,180662.00012159348,-0.12468879481311096,51.50940087832025,11/27/2022
Chinawhite,City Of Westminster,,200000000000,E09000033,West End,E05000649,6 Air Street,City Of Westminster,,529415.000122197,180667.00012159348,-0.13492768210879272,51.50960913628239,11/27/2022
Piccadilly Institute,City Of Westminster,www.piccadillyinstitute.com/,100000000000,E09000033,St. James's,E05000644,The London Pavilion 1,Piccadilly,City Of Westminster,529598.000122197,180689.00012159348,-0.13228378464804375,51.50976491545805,11/27/2022
Adelphi Theatre,City Of Westminster,www.reallyusefultheatres.co.uk/our-theatres/adelphi,10033579363,E09000033,St. James's,E05000644,City Of Westminster ,,,530356.000122197,180689.00012159348,-0.12136608022078375,51.5095905218393,11/27/2022
Storm Nightclub,City Of Westminster,,100000000000,E09000033,St. James's,E05000644,28 Leicester Square,City Of Westminster,,529924.000122197,180697.00012159348,-0.1275853456686751,51.50976193836027,11/27/2022
Mortons Club,City Of Westminster,,10033570927,E09000033,West End,E05000649,28 Berkeley Square,City Of Westminster,,528704.000122197,180698.00012159348,-0.14515719317091733,51.51005018329719,11/27/2022
Porterhouse,City Of Westminster,,200000000000,E09000033,St. James's,E05000644,21-22 Maiden Lane,City Of Westminster,,530308.000122197,180717.00012159348,-0.12204708557742142,51.50985324976401,11/27/2022
Vaudeville Theatre,City Of Westminster,www.nimaxtheatres.com/vaudeville-theatre,10033544051,E09000033,St. James's,E05000644,404 Strand,City Of Westminster,,530388.000122197,180717.00012159348,-0.1208948205931669,51.50983479147403,11/27/2022
Live At Zdel (Aka Crazy Coqs),City Of Westminster,www.brasseriezedel.com/live-at-zedel,10033616450,E09000033,West End,E05000649,20 Sherwood Street,City Of Westminster,,529480.000122197,180718.00012159348,-0.13397273274040172,51.51005261627311,11/27/2022
The Steelyard,City And County Of The City Of London,,95510144,E09000001,Dowgate,E05009303,13-16 Allhallows Lane,City Of London,,532605.000122197,180736.00012159348,-0.08895602112429277,51.50948952746184,11/27/2022
Salisbury,City Of Westminster,www.greeneking-pubs.co.uk/pub/salisbury-covent-garden,10033585485,E09000033,St. James's,E05000644,90 St. Martin's Lane,City Of Westminster,,530053.000122197,180768.00012159348,-0.12570112308301587,51.51037038151486,11/27/2022
Round Table,City Of Westminster,www.greeneking-pubs.co.uk/pub/round-table-leicester-square,10033554795,E09000033,St. James's,E05000644,26-27 St. Martin's Court,City Of Westminster,,530006.000122197,180769.00012159348,-0.12637771961290137,51.5103901871535,11/27/2022
Swan,City Of Westminster,www.swanbayswater.co.uk,100000000000,E09000033,Lancaster Gate,E05000638,66 Bayswater Road,City Of Westminster,,526600.000122197,180772.00012159348,-0.17543614721481918,51.51119071242872,11/27/2022
Noel Coward Theatre,City Of Westminster,www.noelcowardtheatre.co.uk,100000000000,E09000033,St. James's,E05000644,85-88 St. Martin's Lane,City Of Westminster,,530040.000122197,180793.00012159348,-0.1258791463172148,51.5105980660061,11/27/2022
Lyric Theatre,City Of Westminster,www.nimaxtheatres.com/lyric-theatre,100000000000,E09000033,West End,E05000649,29 Shaftesbury Avenue,City Of Westminster,,529600.000122197,180800.00012159348,-0.13221416923956122,51.5107620923376,11/27/2022
Drayton Court,Ealing,www.draytoncourtlondon.co.uk,12142024,E09000009,Ealing Broadway,E05000173,2 The Avenue,Ealing,,516720.0001221001,180810.00012169778,-0.31774567077878035,51.51366015781297,11/27/2022
Leicester Square Theatre,City Of Westminster,www.leicestersquaretheatre.com,100000000000,E09000033,St. James's,E05000644,6 Leicester Place,City Of Westminster,,529858.000122197,180814.00012159348,-0.128492866078342,51.51082867273402,11/27/2022
Savoy Theatre,City Of Westminster,www.savoy-theatre.co.uk,100000000000,E09000033,St. James's,E05000644,Savoy Court Strand,City Of Westminster,,530601.000122197,180817.00012159348,-0.11778987267930531,51.51068435459246,11/27/2022
Apollo Theatre,City Of Westminster,www.nimaxtheatres.com/apollo-theatre,10033548808,E09000033,West End,E05000649,31 Shaftesbury Avenue,City Of Westminster,,529628.000122197,180826.00012159348,-0.13180130480332305,51.51098934844521,11/27/2022
Lyceum Theatre,City Of Westminster,www.lyceum-theatre.co.uk,10033572107,E09000033,St. James's,E05000644,21 Wellington Street,City Of Westminster,,530549.000122197,180841.00012159348,-0.1185299690136072,51.510912077034625,11/27/2022
Gem,City Of Westminster,www.gem-bar.co.uk/,10033529896,E09000033,West End,E05000649,10 Beak Street,City Of Westminster,,529275.000122197,180859.00012159348,-0.13687374086199772,51.5113668341731,11/27/2022
The Red Room (Aka The Ealing Jazz Club),Ealing,www.ealingclub.com,12133012,E09000009,Ealing Broadway,E05000173,42 The Broadway,Ealing,,517885.0001221001,180864.00012169778,-0.30094467574823447,51.51390360326917,11/27/2022
The White Horse,City Of Westminster,,10033584811,E09000033,West End,E05000649,45 Rupert Street,City Of Westminster,,529615.000122197,180868.00012159348,-0.13197310996271208,51.511369814984825,11/27/2022
Graphic Bar,City Of Westminster,,100000000000,E09000033,West End,E05000649,4 Golden Square,City Of Westminster,,529393.000122197,180883.00012159348,-0.1351652697244879,51.51155552381125,11/27/2022
Prince Edward,City Of Westminster,www.theprince-edward.co.uk,100000000000,E09000033,Bayswater,E05000631,73 Princes Square,City Of Westminster,,525448.000122197,180885.00012159348,-0.1919896638099778,51.51246335517027,11/27/2022
Revolution,City And County Of The City Of London,,100000000000,E09000001,Tower,E05009310,City Of London ,,,533612.000122197,180899.00012159348,-0.07439059003020591,51.51071721619676,11/27/2022
Arts Theatre,City Of Westminster,www.artstheatrewestend.co.uk,10033630848,E09000033,St. James's,E05000644,6 Great Newport Street,City Of Westminster,,530031.000122197,180905.00012159348,-0.1259674634004511,51.511606757303085,11/27/2022
Village,City Of Westminster,www.village-soho.co.uk,10033570802,E09000033,West End,E05000649,81 Wardour Street,City Of Westminster,,529627.000122197,180928.00012159348,-0.13177819834299934,51.51190632379888,11/27/2022
Maddox Club,City Of Westminster,,100000000000,E09000033,West End,E05000649,42858 Mill Street,City Of Westminster,,529009.000122197,180941.00012159348,-0.14067517791681267,51.512164639141275,11/27/2022
Compton's Of Soho,City Of Westminster,,10033584582,E09000033,West End,E05000649,51-53 Old Compton Street,City Of Westminster,,529682.000122197,180946.00012159348,-0.13097935356058696,51.51205547889496,11/27/2022
Parlour At Sketch,City Of Westminster,,100000000000,E09000033,West End,E05000649,9 Conduit Street,City Of Westminster,,529056.000122197,180952.00012159348,-0.13999415306071428,51.51225276862478,11/27/2022
Novello Theatre,City Of Westminster,www.novellotheatrelondon.info/,10033615106,E09000033,St. James's,E05000644,5 Aldwych,City Of Westminster,,530593.000122197,180962.00012159348,-0.11785138078757433,51.51198941084869,11/27/2022
The Coach And Horses,City Of Westminster,,100000000000,E09000033,St. James's,E05000644,42 Wellington Street,City Of Westminster,,530492.000122197,180967.00012159348,-0.11930433055425856,51.51205768919364,11/27/2022
Handel & Hendrix In London,City Of Westminster,www.handelhendrix.org,0,E09000033,West End,E05000649,25 Brook Street City Of Westminster,,,528755.2590942979,180967.30950879306,-0.14432051033934612,51.512458993743074,11/27/2022
Marble Arch Theatre,City Of Westminster,www.fiveguysmusical.com,10033548055,E09000033,Knightsbridge And Belgravia,E05000637,Marble Arch London,,,527852.000122197,180968.00012159348,-0.1573311721192663,51.51267036063192,11/27/2022
Cirque Du Soir,City Of Westminster,,10033600542,E09000033,West End,E05000649,21 Ganton Street,City Of Westminster,,529236.000122197,180970.00012159348,-0.13739479600024615,51.512373396026376,11/27/2022
Cos Bar,City And County Of The City Of London,,100000000000,E09000001,Castle Baynard,E05009297,148 Queen Victoria Street,City Of London,,531832.000122197,180975.00012159348,-0.10000016141271767,51.51181846015142,11/27/2022
Ain't Nothin But Blues Bar,City Of Westminster,www.aintnothinbut.co.uk,100000000000,E09000033,West End,E05000649,20 Kingly Street,City Of Westminster,,529197.000122197,180980.00012159348,-0.1379528960527385,51.51247219450497,11/27/2022
Theatre Royal Drury Lane,City Of Westminster,www.reallyusefultheatres.co.uk/our-theatres/theatre-royal,10033555899,E09000033,St. James's,E05000644,Drury Lane City Of Westminster,,,530529.000122197,181002.00012159348,-0.11875842170509524,51.51236370820579,11/27/2022
Yager Bar,City And County Of The City Of London,www.yager-bar.com,95506109,E09000001,Bread Street,E05009293,42796 Old Change Court,City Of London,,532120.000122197,181003.00012159348,-0.09584139236763949,51.512002826469164,11/27/2022
Royal Opera House,City Of Westminster,www.roh.org.uk,10033547198,E09000033,St. James's,E05000644,Covent Garden City Of Westminster,,,530368.000122197,181017.00012159348,-0.1210719337337172,51.512535702229506,11/27/2022
Cockpit,City And County Of The City Of London,www.thecockpit.org.uk,100000000000,E09000001,Farringdon Within,E05009304,7 St. Andrew's Hill,City Of London,,531840.000122197,181017.00012159348,-0.0998692218655941,51.512194069767034,11/27/2022
Foundation Bar,City Of Westminster,,100000000000,E09000033,St. James's,E05000644,5 Langley Street,City Of Westminster,,530207.000122197,181027.00012159348,-0.12338731145696077,51.51266271248243,11/27/2022
The Coach And Horses,City Of Westminster,www.coachsoho.co.uk,100000000000,E09000033,West End,E05000649,29 Greek Street,City Of Westminster,,529846.000122197,181028.00012159348,-0.12858687785976333,51.51275479627961,11/27/2022
St. Stephen Walbrook,City And County Of The City Of London,www.ststephenwalbrook.net,200000000000,E09000001,Walbrook,E05009312,39 Walbrook,City Of London,,532627.000122197,181039.00012159348,-0.08852515518664116,51.51220757019968,11/27/2022
Ronnie Scotts,City Of Westminster,www.ronniescotts.co.uk,10033534558,E09000033,West End,E05000649,47 Frith Street,City Of Westminster,,529740.000122197,181041.00012159348,-0.13010894828599448,51.51289599196441,11/27/2022
Two Brewers,Camden,www.greeneking-pubs.co.uk/pub/two-brewers-covent-garden,5059285,E09000007,Holborn And Covent Garden,E05000138,40 Monmouth Street,Camden,,530043.000122197,181044.00012159348,-0.12574333337623142,51.51285328149432,11/27/2022
The Spice Of Life,City Of Westminster,www.spiceoflifesoho.com,100000000000,E09000033,West End,E05000649,6 Moor Street,City Of Westminster,,529874.000122197,181046.00012159348,-0.12817692525852112,51.51291013770648,11/27/2022
Pineapple Dance Studios,City Of Westminster,,10033569887,E09000033,St. James's,E05000644,7 Langley Street,City Of Westminster,,530195.000122197,181054.00012159348,-0.1235501886333789,51.51290814521416,11/27/2022
Shakespeares Head,City Of Westminster,www.greeneking-pubs.co.uk/pub/shakespeares-head-soho,100000000000,E09000033,West End,E05000649,29 Great Marlborough Street,City Of Westminster,,529192.000122197,181055.00012159348,-0.13799742676553958,51.51314741813593,11/27/2022
Cambridge Theatre,Camden,www.reallyusefultheatres.co.uk/our-theatres/cambridge,5089373,E09000007,Holborn And Covent Garden,E05000138,Earlham Street Camden,,,530108.000122197,181062.00012159348,-0.12480040993740843,51.513000091878524,11/27/2022
Prince Edward Theatre,City Of Westminster,www.princeedwardtheatre.co.uk,100000000000,E09000033,West End,E05000649,28 Old Compton Street,City Of Westminster,,529792.000122197,181081.00012159348,-0.12934519257670646,51.51324355392825,11/27/2022
Loop Bar & Nightclub,City Of Westminster,www.theloopbar.co.uk/,100000000000,E09000033,West End,E05000649,19 Dering Street,City Of Westminster,,528784.000122197,181095.00012159348,-0.14385985850845395,51.51360009513739,11/27/2022
Phoenix Theatre,Camden,www.phoenixtheatrelondon.co.uk,5037592,E09000007,Holborn And Covent Garden,E05000138,110 Charing Cross Road,Camden,,529885.000122197,181169.00012159348,-0.12797314941645177,51.51401309345008,11/27/2022
Basement Sate,City Of Westminster,www.basementsate.com,100000000000,E09000033,West End,E05000649,8 Broadwick Street,City Of Westminster,,529517.000122197,181108.00012159348,-0.13329650144151914,51.513549342678424,11/27/2022
Bjs White Swan,Tower Hamlets,www.bjswhiteswan.com,6047411,E09000030,Shadwell,E05009332,556 Commercial Road,Tower Hamlets,,536023.000122197,181110.00012159348,-0.039583642640520625,51.5120381523116,11/27/2022
Madison,City And County Of The City Of London,www.madisonlondon.net/,10091783504,E09000001,Bread Street,E05009293,1 New Change,City Of London,,532208.000122197,181111.00012159348,-0.09453335081235609,51.51295288912389,11/27/2022
Spread Eagle,City Of Westminster,www.greeneking-pubs.co.uk/pub/spread-eagle-marylebone,10033584775,E09000033,West End,E05000649,8 Woodstock Street,City Of Westminster,,528646.000122197,181119.00012159348,-0.1458389459067427,51.51384724767082,11/27/2022
Barrio Central,City Of Westminster,,10033586646,E09000033,West End,E05000649,6 Poland Street,City Of Westminster,,529407.000122197,181124.00012159348,-0.13487513146889357,51.51371835717268,11/27/2022
Salsa!,Camden,www.bar-salsa.com/soho,5002609,E09000007,Holborn And Covent Garden,E05000138,96 Charing Cross Road,Camden,,529920.000122197,181124.00012159348,-0.12748557398402618,51.513600598790376,11/27/2022
Pause Bar,City And County Of The City Of London,,10091780331,E09000001,Aldgate,E05009289,80 Leadenhall Street,City Of London,,533423.000122197,181132.00012159348,-0.07702460181124733,51.51285595420218,11/27/2022
Thomas Neale,Tower Hamlets,,6160450,E09000030,Shadwell,E05009332,39 Watney Market,Tower Hamlets,,534944.000122197,181147.00012159348,-0.05511076871792364,51.51262946568608,11/27/2022
London Palladium,City Of Westminster,www.reallyusefultheatres.co.uk/our-theatres/london-palladium,10033529083,E09000033,West End,E05000649,8 Argyll St Soho,London,,529159.000122197,181152.00012159348,-0.1384372279110115,51.514026774947666,11/27/2022
St. Moritz Club,City Of Westminster,www.stmoritzclub.co.uk,10033622399,E09000033,West End,E05000649,Flat 159,Wardour Street,City Of Westminster,529509.000122197,181154.00012159348,-0.13339483484267925,51.51396461156489,11/27/2022
Troxy,Tower Hamlets,www.troxy.co.uk,6027797,E09000030,Shadwell,E05009332,490 Commercial Road,Tower Hamlets,,535827.000122197,181157.00012159348,-0.042388584493420346,51.51250771318365,11/27/2022
Tipperary,City And County Of The City Of London,,100000000000,E09000001,Castle Baynard,E05009297,66 Fleet Street,City Of London,,531409.000122197,181162.00012159348,-0.10602324871492282,51.51359769358023,11/27/2022
Jazz After Dark Ltd,City Of Westminster,www.jazzafterdark.co.uk,10033551268,E09000033,West End,E05000649,9 Greek Street,City Of Westminster,,529784.000122197,181163.00012159348,-0.12943023261831846,51.51398238258549,11/27/2022
Phoenix Artist Club,Camden,www.phoenixartistclub.com,5169960,E09000007,Holborn And Covent Garden,E05000138,1 Phoenix Street,Camden,,529919.000122197,181165.00012159348,-0.12748486490206515,51.51396932363668,11/27/2022
Revolution,City And County Of The City Of London,,100000000000,E09000001,Lime Street,E05009307,140 Leadenhall Street,City Of London,,533129.000122197,181171.00012159348,-0.08124462331637172,51.51327582941683,11/27/2022
Bar 68 And Boston,City Of Westminster,,100000000000,E09000033,West End,E05000649,5 Greek Street,City Of Westminster,,529774.000122197,181187.00012159348,-0.1295654421698334,51.51420038468534,11/27/2022
Leman Street Tavern,Tower Hamlets,www.lemanstreettavern.co.uk,6702016,E09000030,Whitechapel,E05009336,31 Leman Street,Tower Hamlets,,533999.000122197,181192.00012159348,-0.06870518238344549,51.5132588548136,11/27/2022
The Prince Of Wales,City Of Westminster,www.greeneking-pubs.co.uk/pub/prince-of-wales-covent-garden,10033533609,E09000033,St. James's,E05000644,150-151 Drury Lane,City Of Westminster,,530428.000122197,181196.00012159348,-0.12014144402887006,51.51413063983606,11/27/2022
Borderline,City Of Westminster,www.theborderlinelondon.com,10033537847,E09000033,West End,E05000649,Orange Yard Manette Street,City Of Westminster,,529828.000122197,181208.00012159348,-0.12877984986774987,51.51437671707406,11/27/2022
The House Of St. Barnabus,City Of Westminster,,10033599927,E09000033,West End,E05000649,House Of St. Barnabas In Soho 1,Greek Street,City Of Westminster,529773.000122197,181209.00012159348,-0.12957174604156613,51.51439834359205,11/27/2022
Jazz Club Soho,City Of Westminster,www.pizzaexpresslive.com/venues/soho-jazz-club,100000000000,E09000033,West End,E05000649,10 Dean Street,City Of Westminster,,529624.000122197,181228.00012159348,-0.131711077367706,51.51460332276352,11/27/2022
Royal George,City Of Westminster,www.theroyalgeorgewc2.co.uk,100000000000,E09000033,West End,E05000649,133 Charing Cross Road,City Of Westminster,,529792.000122197,181236.00012159348,-0.12928811101558124,51.514636645610636,11/27/2022
Pizza Express Jazz Club,City Of Westminster,https://www.pizzaexpresslive.com/venues/soho-jazz-club,0,E09000033,West End,E05000649,10 Dean St Soho,London,,529612.7454834953,181236.0205072984,-0.13187024960336063,51.51467799025993,11/27/2022
St. Giles-In-The-Fields,Camden,www.stgilesonline.org,0,E09000007,Holborn And Covent Garden,E05000138,60 St Giles High St London,,,529965.000122197,181256.00012159348,-0.12678869272950646,51.5147766200176,11/27/2022
City Zebrano,City And County Of The City Of London,,200000000000,E09000001,Aldgate,E05009289,18-22 Houndsditch,City Of London,,533494.000122197,181258.00012159348,-0.07595420261700667,51.51397159373784,11/27/2022
Queens Head,Tower Hamlets,www.queensheadlimehouse.co.uk,6045051,E09000030,St. Dunstan's,E05009329,8 Flamborough Street,Tower Hamlets,,536187.000122197,181260.00012159348,-0.03716354496811711,51.51334671993761,11/27/2022
The Globe,Kensington And Chelsea,,217085524,E09000020,Colville,E05009392,103 Talbot Road,Kensington And Chelsea,,524959.000122197,181278.00012159348,-0.1988942439950931,51.51610403899469,11/27/2022
New London Theatre,Camden,www.reallyusefultheatres.co.uk/our-theatres/new-london,5090696,E09000007,Holborn And Covent Garden,E05000138,166 Drury Lane,Camden,,530353.000122197,181282.00012159348,-0.1211899845526253,51.51492089029871,11/27/2022
The George Tavern,Tower Hamlets,www.thegeorgetavern.co.uk,6027924,E09000030,Stepney Green,E05009334,373 Commercial Road,Tower Hamlets,,535205.000122197,181287.00012159348,-0.051297722363800126,51.51382527576585,11/27/2022
Hut,Hillingdon,www.thehutpub.com,100000000000,E09000017,Yiewsley,E05000345,2 Old Orchard Close,Hillingdon,,507347.0001221001,181300.00012169778,-0.45263164337335704,51.519924006946226,11/27/2022
Sway,Camden,www.swaybar.co.uk/,5082337,E09000007,Holborn And Covent Garden,E05000138,61-65 Great Queen Street,Camden,,530499.000122197,181301.00012159348,-0.11907983396013058,51.51505794274204,11/27/2022
Balls Brothers,City And County Of The City Of London,www.ballsbrothers.co.uk,95509801,E09000001,Aldgate,E05009289,City Of London ,,,533309.000122197,181308.00012159348,-0.07860007667437391,51.51446465583565,11/27/2022
Kanaloa,City And County Of The City Of London,www.kanaloaclub.com,95506679,E09000001,Castle Baynard,E05009297,Shoe Lane City Of London,,,531490.000122197,181309.00012159348,-0.10480165114863836,51.514900015689555,11/27/2022
Castle,Tower Hamlets,www.thecastlelondon.com,6011770,E09000030,Whitechapel,E05009336,44 Commercial Road,Tower Hamlets,,534096.000122197,181314.00012159348,-0.06726158266220646,51.51433229487266,11/27/2022
Tokenhouse,City And County Of The City Of London,www.tokenhousemoorgate.co.uk,10091913571,E09000001,Coleman Street,E05009299,4 Moorgate,City Of London,,532683.000122197,181315.00012159348,-0.08761464130639825,51.514674962242616,11/27/2022
Project,City Of Westminster,,100000000000,E09000033,West End,E05000649,78 Wells Street,City Of Westminster,,529343.000122197,181338.00012159348,-0.13571848885624313,51.51565638773246,11/27/2022
100 Club,City Of Westminster,www.the100club.co.uk,10033540054,E09000033,West End,E05000649,100 Oxford Street,City Of Westminster,,529481.000122197,181347.00012159348,-0.13372725763212018,51.515705658609455,11/27/2022
Shaftesbury Theatre,Camden,www.shaftesburytheatre.com,5038488,E09000007,Holborn And Covent Garden,E05000138,210 Shaftesbury Avenue,Camden,,530120.000122197,181370.00012159348,-0.12451384188681056,51.515765528067064,11/27/2022
Balls Brothers Shoe Lane,City And County Of The City Of London,,95505742,E09000001,Castle Baynard,E05009297,City Of London ,,,531478.000122197,181392.00012159348,-0.10494354280062045,51.51564877657988,11/27/2022
Mau Mau Bar,Kensington And Chelsea,,217112647,E09000020,Colville,E05009392,265 Portobello Road,Kensington And Chelsea,,524519.000122197,181405.00012159348,-0.20518798551341416,51.517342698302755,11/27/2022
Muse Gallery,Kensington And Chelsea,,217069499,E09000020,Colville,E05009392,269 Portobello Road,Kensington And Chelsea,,524511.000122197,181418.00012159348,-0.20529864268416587,51.51746130686567,11/27/2022
The White Hart,Tower Hamlets,,6002101,E09000030,Spitalfields & Banglatown,E05009333,89 Whitechapel High Street,Tower Hamlets,,533951.000122197,181429.00012159348,-0.06930649454811774,51.5154002471755,11/27/2022
Dominion Theatre,Camden,www.nederlander.co.uk/dominion-theatre,5083050,E09000007,Bloomsbury,E05000129,268-269 Tottenham Court Road,Camden,,529872.000122197,181440.00012159348,-0.12806054066760483,51.51645174387213,11/27/2022
St. Anne And St. Agnes Church,City And County Of The City Of London,www.greshamcentre.com,0,E09000001,Aldersgate,E05009288,Gresham Centre Gresham St,London,,532189.000122197,181448.00012159348,-0.0946806265657043,51.51598612604661,11/27/2022
The Social,City Of Westminster,www.thesocial.com,100000000000,E09000033,West End,E05000649,5 Little Portland Street,City Of Westminster,,529096.000122197,181468.00012159348,-0.13922896983349922,51.516881301802265,11/27/2022
Golden Eagle,City Of Westminster,,100000000000,E09000033,Marylebone High Street,E05000641,59 Marylebone Lane,City Of Westminster,,528400.000122197,181479.00012159348,-0.1492513591723919,51.51713882410851,11/27/2022
Ma Dame,City Of Westminster,,100000000000,E09000033,Bayswater,E05000631,58 Porchester Road,City Of Westminster,,525764.000122197,181485.00012159348,-0.18722366533587795,51.517785877862494,11/27/2022
St. Andrew Holborn Church,City And County Of The City Of London,www.standrewholborn.org.uk,10091906423,E09000001,Farringdon Without,E05009305,5 St. Andrew Street,City Of London,,531480.000122197,181489.00012159348,-0.10487854185528388,51.516520104239426,11/27/2022
Lord Wargrave,City Of Westminster,www.lordwargrave.com,10033530644,E09000033,Bryanston And Dorset Square,E05000632,40-42 Brendon Street,City Of Westminster,,527367.000122197,181504.00012159348,-0.1641236564915538,51.51759741982784,11/27/2022
Long Bar - The Sanderson,City Of Westminster,,10033576880,E09000033,West End,E05000649,50 Berners Street,City Of Westminster,,529332.000122197,181512.00012159348,-0.13581308593241942,51.51722276950567,11/27/2022
Bourne And Hollingsworth,Camden,www.bourneandhollingsworth.com,5143602,E09000007,Bloomsbury,E05000129,28 Rathbone Place,Camden,,529551.000122197,181538.00012159348,-0.1326486705715995,51.51740625831428,11/27/2022
Apples & Pears,Tower Hamlets,www.applesandpearsbar.com,6015760,E09000030,Spitalfields & Banglatown,E05009333,26 Osborn Street,Tower Hamlets,,534016.000122197,181552.00012159348,-0.0683234180347616,51.51649027479651,11/27/2022
Cinnamon Kitchen,City And County Of The City Of London,,95510984,E09000001,Bishopsgate,E05009292,Unit 1 Western Courtyard,Devonshire Square,City Of London,533414.000122197,181557.00012159348,-0.07699334874032407,51.516677731406006,11/27/2022
Old Bengal Bar,City And County Of The City Of London,,95509995,E09000001,Bishopsgate,E05009292,Apartment 14 Tapestry Building,16,New Street,533325.000122197,181564.00012159348,-0.07827275461548189,51.516761659170854,11/27/2022
Som Saa,Tower Hamlets,,6000286,E09000030,Spitalfields & Banglatown,E05009333,43 Commercial Street,Tower Hamlets,,533748.000122197,181572.00012159348,-0.0721763643618489,51.51673354889866,11/27/2022
Elysee,Camden,,5011894,E09000007,Bloomsbury,E05000129,13 Percy Street,Camden,,529634.000122197,181583.00012159348,-0.13143643532684215,51.51779165989556,11/27/2022
Bounce,Camden,,5036522,E09000007,Holborn And Covent Garden,E05000138,121 Holborn,Camden,,531336.000122197,181601.00012159348,-0.10691116016340452,51.51756021487133,11/27/2022
Holborn Whippet,Camden,www.holbornwhippet.com,5083721,E09000007,Holborn And Covent Garden,E05000138,25-27 Sicilian Avenue,Camden,,530446.000122197,181612.00012159348,-0.11972817076917233,51.51786533991685,11/27/2022
Portobello House,Kensington And Chelsea,www.portobellohouse.com,217049277,E09000020,St. Helen's,E05009404,225 Ladbroke Grove,Kensington And Chelsea,,524160.000122197,181627.00012159348,-0.21028164897041973,51.519417089381136,11/27/2022
Crown,Hillingdon,www.yeoldecrowne.co.uk,100000000000,E09000017,Barnhill,E05000324,1090 Uxbridge Road,Hillingdon,,509604.0001221001,181639.00012169778,-0.4200054984514237,51.52253775367509,11/27/2022
Astronomer,City And County Of The City Of London,www.theastronomerpub.co.uk,95506101,E09000001,Bishopsgate,E05009292,125 Middlesex Street,City Of London,,533398.000122197,181641.00012159348,-0.07719203085498783,51.51743645321801,11/27/2022
Dirty Dicks Public House,City And County Of The City Of London,,200000000000,E09000001,Bishopsgate,E05009292,202 Bishopsgate,City Of London,,533343.000122197,181652.00012159348,-0.0779801620901517,51.517548302552896,11/27/2022
Indo,Tower Hamlets,,6362389,E09000030,Spitalfields & Banglatown,E05009333,Flat 2 133,Whitechapel Road,Tower Hamlets,534303.000122197,181658.00012159348,-0.06414880196695126,51.51737476232858,11/27/2022
The Beckton Arms,Newham,,46004744,E09000025,Canning Town North,E05000477,Beckton Road Newham,,,539916.000122197,181726.00012149662,0.0167314688437794,51.516623300875864,11/27/2022
Old Nick,Camden,www.oldnickholborn.co.uk,5134812,E09000007,Holborn And Covent Garden,E05000138,21-22 Sandland Street,Camden,,530776.000122197,181734.00012159348,-0.1149289773221676,51.51888551232366,11/27/2022
South Place Hotel,Islington,,10090266586,E09000019,Bunhill,E05000367,3 South Place,Islington,,532861.000122197,181748.00012159348,-0.08488737941949984,51.518524689473885,11/27/2022
Beduin,Islington,www.beduinbar.co.uk/smithfields,10010439992,E09000019,Clerkenwell,E05000370,57-59 Charterhouse Street,Islington,,531677.000122197,181749.00012159348,-0.10194354472791758,51.5188109716377,11/27/2022
Fitzrovia,Camden,www.greeneking-pubs.co.uk/pub/fitzrovia-bloomsbury,5142641,E09000007,Bloomsbury,E05000129,18 Goodge Street,Camden,,529504.000122197,181759.00012159348,-0.13324451523202013,51.51940331930598,11/27/2022
Conway Hall,Camden,www.conwayhall.org.uk,5048256,E09000007,Holborn And Covent Garden,E05000138,Conway Hall 25,Red Lion Square,Camden,530650.000122197,181775.00012159348,-0.11672894540398056,51.51928316715563,11/27/2022
Fabric,Islington,www.fabriclondon.com,5300037740,E09000019,Clerkenwell,E05000370,77a Charterhouse St London,,,531746.000122197,181788.00012159348,-0.10093494982033525,51.51914539356765,11/27/2022
King & Queen,City Of Westminster,www.thekingandqueenpub.com,10033534471,E09000033,West End,E05000649,1 Foley Street,City Of Westminster,,529239.000122197,181791.00012159348,-0.13705048614296533,51.51975163219995,11/27/2022
Reina Bar And Kitchen,Islington,www.reina.london,5300019054,E09000019,Clerkenwell,E05000370,85 Charterhouse Street,Islington,,531767.000122197,181796.00012159348,-0.10062943040892089,51.519212394558735,11/27/2022
Fence,Islington,www.thefenceuk.co.uk,5300024880,E09000019,Clerkenwell,E05000370,67-69 Cowcross Street,Islington,,531663.000122197,181830.00012159348,-0.10211495969882785,51.51954222635541,11/27/2022
Angel,Hillingdon,www.angel-hayes.co.uk,100000000000,E09000017,Botwell,E05000325,697 Uxbridge Road,Hillingdon,,508796.0001221001,181832.00012169778,-0.43158888228772035,51.52442890923732,11/27/2022
93 Feet East,Tower Hamlets,www.93feeteast.co.uk,6717071,E09000030,Spitalfields & Banglatown,E05009333,150 Brick Ln Shoreditch,London,,533893.000122197,182074.00012159348,-0.06989686546196872,51.521210854330114,11/27/2022
Barbican Centre,City And County Of The City Of London,www.barbican.org.uk,200000000000,E09000001,Coleman Street,E05009299,Silk Street Barbican,City Of London,,532498.000122197,181833.00012159348,-0.09008471328786388,51.51937390368272,11/27/2022
"Milton Court, Guildhall School Of Music And Drama",City And County Of The City Of London,www.gsmd.ac.uk/about_the_school/milton_court,10025504329,E09000001,Coleman Street,E05009299,City Of London ,,,532515.000122197,181833.00012159348,-0.08983981034876616,51.51936991500895,11/27/2022
Hellenic Centre,City Of Westminster,www.helleniccentre.org,100000000000,E09000033,Marylebone High Street,E05000641,16-18 Paddington Street,City Of Westminster,,528201.000122197,181842.00012159348,-0.15198604497133214,51.52044660003941,11/27/2022
Second Home,Tower Hamlets,,6177519,E09000030,Spitalfields & Banglatown,E05009333,68 Hanbury Street,Tower Hamlets,,533973.000122197,181886.00012159348,-0.068815839233119,51.519502256617294,11/27/2022
Cody Dock,Newham,,10090328328,E09000025,Canning Town North,E05000477,11c South Crescent,Newham,,538710.000122197,181892.00012149662,-0.0005748814911926129,51.518412606977996,11/27/2022
Simmons Bar,Camden,,5110090,E09000007,Bloomsbury,E05000129,28 Maple Street,Camden,,529214.000122197,182009.00012159348,-0.13733069397083,51.52171667557244,11/27/2022
Duke Of Kent,Ealing,www.dukeofkent.co.uk,12076416,E09000009,Cleveland,E05000171,2 Scotch Common,Ealing,,516626.0001221001,182043.00012169778,-0.31869169163900896,51.5247625218342,11/27/2022
